GeoHash,ident,type,name,latitude_deg,longitude_deg
204sn2st97jrp4wgdchcj,NZ-0026,small_airport,Pitt Island Aerodrome,-44.293167,-176.203476
204wb2q10py8hyz70gh8k,NZCI,medium_airport,Chatham Islands / Tuuta Airport,-43.81189,-176.46514
24c3wuqd41b6ccpqjkt9g,NZ-0027,small_airport,Raoul Island Airstrip,-29.243879,-177.936544
2egr4z40kqwxug3xu462e,NTAM,small_airport,Rimatara Airport,-22.63725,-152.8059
2evej6rywjxn4fnzfyfq1,NTAT,medium_airport,Tubuai Airport,-23.36540031,-149.5240021
2eybpggf9gy60jdk4f34m,NTAV,small_airport,Raivavae Airport,-23.885201,-147.662003
2h2fkxhtnmzvk138fbd7q,NFOL,small_airport,Ono-i-Lau Airport,-20.6589,-178.7411
2h5rnm5tj36tt1pbpqmch,NFTF,medium_airport,Fua'amotu International Airport,-21.24119949,-175.1499939
2h5w6spqrk14yewgygw21,NFTE,small_airport,Kaufana Airport,-21.37829971,-174.9579926
2hb7nczju95zy54gymzut,NFCI,small_airport,Cicia Airport,-17.74329948,-179.3419952
2hbb6yvmvz7c0rpt4brpx,NFNK,small_airport,Lakeba Island Airport,-18.19919968,-178.8170013
2hbmgdup50n2j07d6fjzw,NFKB,small_airport,Kaibu Island Airport,-17.25419998,-179.4889984
2hbsg13h98b29s870j2ju,NFGO,small_airport,Mago Island Airstrip,-17.438646,-179.163601
2hbtz238ucprcf6b26h4e,NFVB,small_airport,Vanua Balavu Airport,-17.2689991,-178.9759979
2hkp2z8y85vtnkrnkwcwj,NFTL,medium_airport,Lifuka Island Airport,-19.77700043,-174.3410034
2hsq32ssz2yuqjr7gxn29,NFTV,medium_airport,Vava'u International Airport,-18.58530045,-173.9620056
2hx5mnzbwdfe08yd7vx42,NIUE,medium_airport,Niue International Airport,-19.07903099,-169.9255981
2j00xx47prcefrx1d6su1,NFNH,small_airport,Laucala Island Airport,-16.7481,-179.667007
2j014c9d4nu4y1vz04mtp,NFNM,small_airport,Matei Airport,-16.690599,-179.876999
2j3qefxvn4bj3uvt592m3,NLWF,small_airport,Pointe Vele Airport,-14.311565,-178.066492
2j5p7mmnwmpx0n016tx1p,NFTO,small_airport,Mata'aho Airport,-15.570603,-175.631283
2jdswqpc39gnx51kunj4v,NLWW,medium_airport,Hihifo Airport,-13.23830032,-176.1990051
2jhmj73jqpgwgpmhgdw3b,NFTP,small_airport,Kuini Lavenia Airport,-15.977297,-173.791089
2jqw7rhgbebz579g1r3pb,NSTU,medium_airport,Pago Pago International Airport,-14.331,-170.710007
2jrr71f1fkpy0tsuj4e06,NSAS,small_airport,Ofu Airport,-14.1844,-169.669998
2jrx0sj35cpgmsrj797n2,NSFQ,small_airport,Fitiuta Airport,-14.216131,-169.423771
2jt5pv2nysvjsh5fxewep,NSAU,small_airport,Asau Airport,-13.505132,-172.627888
2jt9b4m93c8e7hbcz737q,NSMA,small_airport,Maota Airport,-13.7423,-172.257996
2jt9mf7d7jnkuzvzbu4r9,NSFA,medium_airport,Faleolo International Airport,-13.82999992,-172.0079956
2jtc5yyfg04kfmk8192r2,NSFI,small_airport,Fagali'i Airport,-13.849167,-171.739866
2knr7s0v661zbvbj63t4j,NCRG,medium_airport,Rarotonga International Airport,-21.2027,-159.806
2kpeqtzysh4vfsx00sfn8,NCMG,small_airport,Mangaia Island Airport,-21.895987,-157.906662
2krw3uvr0hm8tcnk3q9qy,NCAT,small_airport,Enua Airport,-19.96780014,-158.1190033
2krz57u1j9tzp8xu4k5g3,NCMR,small_airport,Mitiaro Island Airport,-19.842501,-157.703003
2kwfqu1m13dx08yf4fuzv,NCMN,small_airport,Manuae Airport,-19.269152,-158.959408
2kwku7zqhcc60chudk0d7,NCAI,small_airport,Aitutaki Airport,-18.8309,-159.764008
2ptbk8hddc509nc6g1b1d,PCIS,medium_airport,Canton Island Airport,-2.76812005,-171.7100067
2q41fjpd2jxprq8d5wzjj,NCPK,small_airport,Pukapuka Island Airport,-10.9145,-165.8393
2qjsbqczmdb752vnsr2p8,NCMH,small_airport,Manihiki Island Airport,-10.3767004,-161.0019989
2qrseyur3zwk6t4hgvm1b,NCPY,small_airport,Tongareva Airport,-9.01437,-158.03241
2s2j7w2fewz2pmt8jw6eq,NCMK,small_airport,Mauke Airport,-20.13610077,-157.3450012
2sh27eyrchzce4dn7wjt8,NTAR,medium_airport,Rurutu Airport,-22.4340992,-151.3609924
2svs5s7w2374g0rrzu7y9,NTAA,large_airport,Faa'a International Airport,-17.553699,-149.606995
2svs804f9dv6bce7kfx54,NTTM,medium_airport,Moorea Temae Airport,-17.48979,-149.761777
2svxhn2rfurub2sxdys8z,NTTE,small_airport,Tetiaroa Airport,-17.015095,-149.589372
2t5dx9ek9w7hy39tv7k71,NTTP,medium_airport,Maupiti Airport,-16.42650032,-152.2440033
2th2c79y436rbdctkp5fj,NTTR,medium_airport,Raiatea Airport,-16.7229,-151.466003
2th46y6k3jxb3ffezvd16,NTTB,medium_airport,Bora Bora Airport,-16.44440079,-151.7510071
2th58gnj8pbfw237ehnxv,NTTU,small_airport,Tupai Airport,-16.2423,-151.8338
2th956jqty46s5q3b1gcg,NTTH,medium_airport,Huahine-Fare Airport,-16.687084,-151.021593
2tpum39d292jvnkqcegkm,NTKN,small_airport,Naiu Airport,-16.119296,-146.368768
2tpwcs9det32j17yk3yrx,NTGK,medium_airport,Kaukura Airport,-15.6633,-146.884995
2tpzkhzv5qs33smkzfqb4,NTGD,small_airport,Apataki Airport,-15.5736,-146.414993
2tq5rv7e4c5pc9serrkmh,NTGV,medium_airport,Mataiva Airport,-14.86810017,-148.7169952
2tq9fzt3zq30ghp3vrek9,NTGC,medium_airport,Tikehau Airport,-15.1196,-148.231003
2tqfzvssckmqpyqxy2n3p,NTTG,medium_airport,Rangiroa Airport,-14.95429993,-147.6609955
2tr9r8hu0nvtvgmprzs7y,NTGU,medium_airport,Arutua Airport,-15.2482996,-146.6170044
2trvzv6yhz396b624k24f,NTHE,medium_airport,Ahe Airport,-14.42809963,-146.2570038
2u660ztjknm80ec8k29w2,NTKU,small_airport,Nukutepipi Airport,-20.700054,-143.045933
2ubt2c4cg2gtp0f7wuq1s,NTGA,medium_airport,Anaa Airport,-17.3526,-145.509995
2uejq4w1vdcdpynnsf7gv,NTGG,small_airport,Nengo-Nengo Airport,-18.7506,-141.7591
2ufs4v3jf8mffqkm8bedu,NTGH,small_airport,Hikueru Airport,-17.548297,-142.612037
2ugc0tw68jjf1x090f938,NTTO,medium_airport,Hao Airport,-18.0748,-140.945999
2uj7cjxhvdq49tsuwvyyg,NTTX,small_airport,Moruroa Airport,-21.80978,-138.813385
2um3yb3fus8py6870yseq,NTGY,small_airport,Tureia Airport,-20.784262,-138.56796
2uptc9215s9gcvm81es8n,NTGS,small_airport,Marutea Airport,-21.4821949,-135.6370544
2ut661rfyxtfsfpjxmk93,NTGW,small_airport,Nukutavake Airport,-19.284613,-138.768367
2utm0m06s0kdeehdhb6h3,NTUV,small_airport,Vahitahi Airport,-18.780697,-138.85568
2uvt389drpkurd6nejm2w,NTGO,small_airport,Tatakoto Airport,-17.355226,-138.44734
2uwxfj7g9j2rqc2ps3n5v,NTGQ,small_airport,Pukaruha Airport,-18.295726,-137.016291
2uwyzq22xr5m7uz755vsf,NTGE,medium_airport,Reao Airport,-18.46652,-136.43855
2v09hfq3etvsdz3q6dvxf,NTKF,small_airport,Faaite Airport,-16.68657,-145.329394
2v0ktmry1fye400fh5twe,NTGF,medium_airport,Fakarava Airport,-16.05410004,-145.6569977
2v0x15uwhp8hj4mq71jnv,NTGR,small_airport,Aratika-Perles Airport,-15.622861,-145.496578
2v0xcugv2vrfqezju17ym,NTKK,small_airport,Aratika Nord Airport,-15.485673,-145.464778
2v0y1x0xnnve03v2n5fw9,NTKA,small_airport,Kauehi Airport,-15.780622,-145.128443
2v171cmq6w8n5r089g2n8,NTKT,small_airport,Katiu Airport,-16.339681,-144.407966
2v1cduzrvbgx1u2npbypc,NTGM,medium_airport,Makemo Airport,-16.5839,-143.658005
2v2ju5g5d1km90gw1bs7d,NTGI,medium_airport,Manihi Airport,-14.4368,-146.0700073
2v2sqf5nfy7hbdhsm6ez0,NTGT,medium_airport,Takapoto Airport,-14.70950031,-145.2460022
2v2vgbkhbewcb05nb1u8u,NTKR,medium_airport,Takaroa Airport,-14.45580006,-145.0249939
2v4sty5epkdzd9u0yxnzc,NTKO,small_airport,Raroia Airport,-16.050485,-142.476568
2v4vf9hxz0018h165jpzv,NTKM,small_airport,Takume Airport,-15.857434,-142.266469
2v5y4003w4019mmby7jc0,NTGB,medium_airport,Fangatau Airport,-15.820044,-140.888071
2v7x37j4tj8hxy64gc7pz,NTGN,small_airport,Napuka Island Airport,-14.177397,-141.266112
2vhm42xw26g54ttdgpn97,NTKH,small_airport,Fakahina Airport,-15.992259,-140.164246
2vm7c0p8p7z9pmkuz49mn,NTGP,small_airport,Puka Puka Airport,-14.80955,-138.812621
2yk6u3w69fqe8c1yqts26,NTMP,small_airport,Ua Pou Airport,-9.35167,-140.078003
2ykmcnb3gmk4297kw09gr,NTMD,medium_airport,Nuku Hiva Airport,-8.7956,-140.229004
2ykv0m5ydwm7851h4kh0p,NTMU,small_airport,Ua Huka Airport,-8.936228,-139.554062
2ym0ktxk8vs2mgmh7vf4r,NTMN,medium_airport,Hiva Oa-Atuona Airport,-9.768790245,-139.0110016
35bhdw2jg4wmkdcwyqby3,NTGJ,medium_airport,Totegegie Airport,-23.07990074,-134.8899994
3e4jqnc3ddjk3cq9j293t,SCIP,medium_airport,Mataveri Airport,-27.16480064,-109.4219971
3zz6dk6hc3mkywtdn4728,SEII,small_airport,General Villamil Airport,-0.942628,-90.953003
3zzv3vqksj6s4g5epkjy2,SEGS,small_airport,Seymour Galapagos Ecological Airport,-0.453758,-90.2659
41udpuzsgb7ckmkq5sbjj,SCGC,small_airport,Union Glacier Blue-Ice Runway,-79.777778,-83.320833
41wp5g4pu5vpe1ddssjc8,SCPZ,small_airport,Patriot Hills Airport,-80.3142,-81.39478
46tn5qn8zbd098dvu2tq3,EGAT,small_airport,Sky Blu Airstrip,-74.849722,-71.566666
47zx9exnu3n6v61e8feq5,EGAR,small_airport,Rothera Research Station,-67.5675,-68.127403
47zx9ez6n121kk0yj2yud,AAXX,small_airport,Aeródromo de Punto Rothera,-67.566941,-68.126993
4ebk3per2wzp5mrxwt8z4,SAYS,small_airport,San Martín Base Airfield,-68.116699,-67.099998
4qmzh2kzn3kgsxp6x9ym8,SCDW,small_airport,Almirante Schroeders Airport,-53.610699,-70.470497
4qpzt0h51hfnujqm12zqx,SCGZ,medium_airport,Guardia Marina Zañartu Airport,-54.931099,-67.626297
4qqfp4ncjdbkt2y2q3qvq,SCAZ,small_airport,Azopardo Airport,-54.481014,-68.940689
4qqvgnhq5782w24g81d51,SCFN,small_airport,Russfin Airport,-53.799,-69.12
4qr01d7fmvz1bbvb2kjg7,SCNY,small_airport,Yendegaia Airport,-54.830973,-68.834926
4qr2jbhd8ebs277end4rh,SAWH,medium_airport,Ushuaia - Malvinas Argentinas International Airport,-54.8433,-68.2958
4qr2jey6dkn2nkwbkzh3c,AR-0736,small_airport,Ushuaia Aeroclub Airport,-54.8227,-68.3043
4qrc4ntgyrm7ke1j32hcr,AR-0684,small_airport,Lago Escondido Airport,-54.63158,-67.7555
4qrfb74jnftfhg28kxzc6,AR-0002,small_airport,Estancia Los Cerros Airport,-54.343,-67.837532
4qrhd0w8jd4bqhpr8ruju,SCBI,small_airport,Pampa Guanaco Airport,-54.049977,-68.809193
4qrj6mjq5b3xzc8h9nhmm,CL-0007,small_airport,Arco Iris Airport,-53.8924,-68.8
4qrkbswxurq1pp3mrrw1x,AR-0003,small_airport,Rio Bellavista Airport,-53.98270035,-68.52359772
4qrukt01hzgec0x9ys2g1,AR-0510,small_airport,Los Robles Airport,-54.069,-67.6536
4qrwvfc2dy7tgp3yysmj5,AR-0509,small_airport,Rio Chico Highway Strip,-53.642,-67.9486
4qry4646hw1gunqrwbn77,SAWE,medium_airport,Gobernador Ramón Trejo Noel International Airport,-53.7777,-67.7494
4qtcpc7neyucews7cj27u,SCFM,medium_airport,Captain Fuentes Martinez Airport,-53.2537,-70.319199
4qtd7xjm2nvew5beveuf6,SCCI,medium_airport,President Carlos Ibañez del Campo International Airport,-53.002602,-70.854599
4qtejvnyxp50rr5pw8tdr,SCID,small_airport,Marco Davison Bascur Airport,-52.881537,-70.753365
4qttnwh6jfw0hn56kkyzd,SCTH,small_airport,Tres Chorrillos Airport,-52.525278,-70.723889
4qtuz175vm2h70q1z91gd,CL-0004,small_airport,Cinco de Enero Airport,-52.595,-70.3521
4qtv4fvux6gczjnt8kq07,CL-0005,small_airport,Oazy Harbour Airport,-52.5427,-70.535
4qu6j99utbzxkz3n3gq30,SCNT,medium_airport,Lieutenant Julio Gallardo Airport,-51.67067,-72.529078
4qucfru932cx1gq4yx98b,AR-0155,small_airport,Estancia Santa Ana Airport,-51.680841,-71.9652
4qudktdg14c0qc74s9sw5,SAWT,small_airport,28 de Noviembre Airport,-51.605,-72.2203
4qudn3zm3skd8sq5jntyr,AR-0714,small_airport,Rospentek Airport,-51.66915,-72.13719
4qus3umgtd19jtd2ycp97,SCPY,small_airport,Cerro Castillo Airport,-51.260222,-72.336836
4quvtfe3vzmjqysrduerw,AR-0715,small_airport,Estancia Tapi Aike Airport,-51.05038,-71.81291
4qvjtmkxw7nf8xu4qjqfe,AR-0716,small_airport,Fuentes de Coyle Airport,-51.03431,-71.48158
4qw4wrgdv80htvf32jbrt,SCIT,small_airport,Iván Martinez Airport,-52.955002,-70.032799
4qw8r4nrup469d97x43y7,CL-0006,small_airport,Onaisin Airport,-53.3812,-69.293
4qweyr8f3yywb0rrd57d7,SCSB,small_airport,Franco Bianco Airport,-52.736698,-69.333603
4qwx6qd9b5ex4fzf1sjcx,AR-0685,small_airport,Monte Aymond Airport,-52.12706,-69.50706
4qwyx2kt8504h5mmpp5mj,SCBS,small_airport,Posesión Airport,-52.292588,-68.933029
4qx0twj68gjbfe2x5jtbf,SCSS,small_airport,San Sebastián Airport,-53.316205,-68.657301
4qx6g3zjg832z944my7nz,AR-0507,small_airport,Estancia Cullen South Airport,-52.9435,-68.4021
4qx75hmwpzx2e7qen86ct,AR-0001,small_airport,Cullen Airport,-52.88574,-68.414956
4qx80c421c2bb0fkthjcx,AR-0508,small_airport,Estancia Sara Airport,-53.432,-68.167
4qxj589ugefgyjfysnn7c,SCPX,small_airport,Punta Catalina Airport,-52.555011,-68.749884
4qy59gfc18ge6jc8u14nf,AR-0713,small_airport,Las Horquetas Airport,-51.39524,-70.23175
4qydpccy28yg36hu4dzz3,AR-0316,small_airport,Rio Chico Airport,-51.668997,-69.266365
4qydqubh77erzk6d95vbe,SAWG,medium_airport,Piloto Civil N. Fernández Airport,-51.6089,-69.3126
4qysfy0w7f44g0gs966yv,AR-0579,small_airport,Coy Aike Airport,-51.162246,-69.487675
4r7vsh1jw91mzbw1m55er,SCTP,small_airport,Río Pascua Airport,-48.22903,-73.299127
4r7yzxe7mb9r2qxvt5v8t,SCRB,small_airport,Río Bravo Airport,-47.990466,-73.142261
4re8nswuh6b60tqpf687t,SCCR,small_airport,Enrique Mayer Soto Airport,-47.787079,-73.533028
4reqxt8hf2fq3cut2pk00,SCRF,small_airport,Laguna San Rafael Airport,-46.638889,-73.849998
4rgb73s6dutgb7ww8xbm0,SCEX,small_airport,Río Exploradores Airport,-46.353611,-73.327778
4rgutwqf0bs086h4nhmjx,SCQO,small_airport,Quitralco Airport,-45.580556,-73.225556
4rgxphv7k1y4xf9rvx425,SCIH,small_airport,Caleta Andrade Airport,-45.149121,-73.513118
4rhcbqu8109zd6urhn159,SAWC,medium_airport,El Calafate - Commander Armando Tola International Airport,-50.2803,-72.053101
4rhfpf1qtff5wqmrfw5s8,AR-0717,small_airport,Estancia Río Bote Airport,-50.26132,-71.72777
4rhnzv512zk39shw6bh78,AR-0757,small_airport,Estancia San José Airstrip,-49.410757,-72.780266
4rhptmn0t39t9150v84z6,AR-0730,small_airport,El Chaltén North Airport,-49.27908,-72.88582
4rhqjy2efhzn41kne7v0b,AR-0496,small_airport,Aeroclub de El Chaltén Alf. G.N.A. Walter Omar D Anna,-49.53531,-72.51997
4rj3zrh5nsc3htur0zexj,AR-0718,small_airport,Gendarme Barreto West Airport,-50.27839,-71.04281
4rj9ft3jd79ksw6qppf7q,AR-0719,small_airport,Gendarme Barreto Airport,-50.28758,-70.90429
4rk1x7uvnpc6md4mgz1wj,SCIO,small_airport,Laguna Redonda Airport,-48.93357849,-72.79961395
4rkkkb2q2uh236e30x5gk,SCOH,small_airport,Villa O'Higgins Airport,-48.469212,-72.564316
4rktf1hwhypfzwprs0e6w,SCEY,small_airport,Entrada Mayer Airport,-48.201452,-72.32759
4rmsuvgnwg7bu3vjsygkn,AR-0723,small_airport,Estancia Silvina Airport,-48.35107,-70.80247
4rmudk4ujqdc0p432fpz8,AR-0722,small_airport,Casa Riera Airport,-48.40504,-70.56118
4rn1genh8p95xses5edtf,AR-0712,small_airport,Campamento Jorge Cepernic Airport,-50.30009,-70.15045
4rn3bf92uubu10uv0m0bp,AR-0154,small_airport,Estancia San Ramón Airport,-50.303495,-69.926057
4rncctu7yn0rjjtc0m4f4,AR-0687,small_airport,Monte León Landing Strip,-50.28512,-69.1858
4rndvn5tucn0bwdwhvrdj,AR-0720,small_airport,Chucuruc Aike Airport,-50.10765,-69.38463
4rngwftvkmf5g7w97t8bg,SA33,small_airport,Comandante Luis Piedrabuena Airport,-49.9951,-68.9531
4rntbmuxc4hqjcsvc9564,AR-0721,small_airport,Estancia La Julia Airport,-49.58133,-69.59216
4rp5rqy0ubd5uuqvwv8k3,SAWU,medium_airport,Santa Cruz Airport,-50.0165,-68.5792
4rpj57kfybntkgmt2sgjs,AR-0580,small_airport,Estancia Elena Airport,-49.727768,-68.756606
4rpmhdvy3q6wu1hkyrnf8,AR-0688,small_airport,Estancia Las Lagunas Airport,-49.72988,-68.34898
4rpz3pgwvp21f5n7tqg9z,SAWJ,medium_airport,Capitan D Daniel Vazquez Airport,-49.306816,-67.802596
4rq47xq3f7p33r1zhett6,SAWR,small_airport,Gobernador Gregores Airport,-48.7831,-70.150002
4rrfg42cs6enhq9fr2jup,AR-0689,small_airport,El Salado Airport,-48.72272,-67.71851
4rrsf1v7hm01kcy4b8ucu,AR-0677,small_airport,Cerro Vanguardia Airstrip,-48.373634,-68.107842
4rryhkx5fsp0kyp769udd,AR-0611,small_airport,Tres Cerros Airport,-48.138678,-67.655065
4rs0c0pq9qs4re7eg32ju,SCVS,small_airport,Lago Vargas Airport,-47.679513,-73.071039
4rs1uqjzhb3t57djhp76g,SCND,small_airport,Ñadis Airport,-47.47072,-72.93013
4rs7hpwfjs267gyxpkey2,SCHR,medium_airport,Cochrane Airport,-47.243591,-72.58815
4rs7ywspz940n1hs9jsj0,SCAL,small_airport,Valchac Airport,-47.116279,-72.481975
4rscrsbsby4cgppbxybex,AR-0497,small_airport,Hipólito Yrigoyen Lago Posadas Airport,-47.565833,-71.74
4rsd6ks1bjjuk16um6t98,SCBR,small_airport,Lago Brown Airport,-47.391945,-72.317497
4rsfd1rm1bbq9b586nbss,AR-0673,small_airport,Estancia Suyai - Lago Pueyrredon Airstrip,-47.365317,-71.97239
4rsgd4ks71byr3z6m877m,SCEB,small_airport,Entrada Baker Airport,-47.184166,-71.976112
4rsjyyx6cu920p1utg95e,SCLO,small_airport,Leones Airport,-46.765556,-72.818336
4rsjz3x7wfpg15zcpv3nq,SCHH,small_airport,Punta Baja Airport,-46.792906,-72.79614
4rsqjd5hqyz62ht49y33w,CL-0032,small_airport,Meseta Cosmelli Airport,-46.74606,-72.527319
4rsquq0e3hy1pt8p3v4mc,SCSZ,small_airport,Puerto Sanchéz Airport,-46.592434,-72.585932
4rsrdpn2p4zu247cn8h62,SCRU,small_airport,Río Murta Airport,-46.455673,-72.676653
4rsxhw5ujzzy4r9h9h7fz,SCFC,small_airport,Fachinal Airport,-46.548343,-72.218714
4rtnbxz9g8g2dm53wyxpp,SCCC,medium_airport,Chile Chico Airport,-46.5831,-71.686323
4rtp4kqu9qp5z4jt8cvdg,AR-0758,small_airport,Lago Buenos Aires (Los Antiguos) Airfield,-46.55788,-71.61054
4rtx19136g143rmhvgwg6,AR-0235,small_airport,Lago Buenos Aires (Aeroclub Perito Moreno) Airfield,-46.576307,-70.947871
4rtx2b4ch6y50sjb8hmjt,SAWP,medium_airport,Perito Moreno Jalil Hamer Airport,-46.537899,-70.978699
4ru9w62cr6s5pffkszp80,SCNL,small_airport,Villa Cerro Castillo Airport,-46.12999,-72.14587
4rubdsryhg300sf97vj27,SCII,small_airport,Puerto Ingeniero Ibañez Airport,-46.293966,-71.949601
4rumdr747pwxjpbcd076q,SCAS,small_airport,Cabo Juan Román Airfield,-45.3992,-72.670303
4rusx5vfw116vmbsbb4ff,SCCY,medium_airport,Teniente Vidal Airport,-45.5942,-72.106102
4rv08zjb45nwc03ftq2gd,AR-0759,small_airport,Estancia Victoria Airstrip,-46.27989,-71.6778
4rv4b9m21e5nh196zwhdv,SCBA,medium_airport,Balmaceda Airport,-45.915968,-71.689499
4rvxuts0u0gnvcg0d0tn1,SAVR,small_airport,D. Casimiro Szlapelis Airport,-45.013599,-70.812202
4rwznxuvrrxux7d4eyfte,SAVH,medium_airport,Las Heras Airport,-46.538517,-68.965323
4rxqjz26dx1405bxwjsqg,AR-0724,small_airport,Yacimiento el Valle Lago del Desierto Airport,-46.71752,-68.30155
4rxznxc6xj8eqsgw883ze,SA25,small_airport,Cañadon Seco Airport,-46.539,-67.5639
4ry5cxbeqztwzvhu1b1bw,SAWM,small_airport,Rio Mayo Airport,-45.703899,-70.245598
4ry9prpxh4fg4cm3vkcm9,AR-0260,small_airport,Los Perales Airport,-46.19079971,-69.28029633
4ryusp79jnzw671tkqu38,SAVM,small_airport,Lago Musters Airport,-45.5752,-69.077
4ryutvgz7njmxv25us98u,AR-0494,small_airport,Colonia Sarmiento Airport,-45.582371,-68.999841
4rzbjvg6px9kmpkcfk2yn,AR-0007,small_airport,Caleta Olivia Airport,-46.37428,-67.59409
4rzfyekuf66ry5w1drycn,AR-0019,small_airport,13 De Diciembre Airport,-45.90417,-67.559295
4rzuu4t47gdyu1mh5u6gu,AR-0701,small_airport,Manantiales Behr Compressor Plant Airport,-45.55715,-67.66875
4s6rwb4kxnwzws6er0cu8,NZ12,small_airport,Palmer Station Airport,-64.774582,-64.035907
4smq25mcwcxj0jpzmn874,SAWZ,small_airport,Matienzo Airfield,-64.976998,-60.108992
4swzeu8drwwc8m7tb2qet,SCBO,small_airport,General Bernardo O'Higgins Base Skyway,-63.344,-57.842
4sxdx3f8yc82mb9s310z4,SAWB,small_airport,Gustavo Marambio Airport,-64.238297,-56.630798
4sxrr66h0zh8sr60g0w51,SAYE,small_airport,Esperanza Base,-63.400002,-56.983299
4symcjb795vpjfdpqbens,SAYJ,small_airport,Jubany Airbase,-62.2383,-58.666599
4syn1wrpn82p3p3ghgtsk,SCRM,small_airport,Teniente Rodolfo Marsh Martin Airport,-62.191026,-58.98669
4u8nbkj858xxr3shvmdr8,SA47,small_airport,Petrel Airport,-63.479,-56.2313
4w21zqwh1rb04jpbgjz5t,SA15,small_airport,Lago Fagnano North Airport,-54.499699,-67.173103
4w21zqwubfzysd3jcjqq0,SAWL,small_airport,Tolhuin Lago Fagnano Airport,-54.499596,-67.172084
4wsxxk2why3rp985qbdvx,FK-0012,small_airport,Port Stephens Airport,-52.09473,-60.852379
4wszn2r8wz6pq5cx971yh,FK-0013,small_airport,Port Abermarle Airport,-52.205532,-60.535062
4wtpsjpmpdw2e2t3cwqv1,FK-0032,small_airport,Port Edgar Airport,-52.090803,-60.282682
4wtvwt2s4tvgpez11p29b,FK-0034,small_airport,Sea Lion Island Airstrip,-52.441146,-59.127616
4wtvxxszsb35xcpwzsqjt,FK-0003,small_airport,Sea Lion Lodge Airstrip,-52.428215,-59.077744
4wtw0nj18fqvxq195dtn7,FK-0023,small_airport,George Island Airport,-52.349583,-59.758717
4wtwb7z6u0yqw6vny1698,FK-0026,small_airport,Speedwell Island Airport,-52.2299,-59.744502
4wtz2zpzv1t4jqn074gmn,FK-0019,small_airport,North Arm Airport,-52.123295,-59.370239
4wu3ndg08scprh4tnbzms,FK-0029,small_airport,Beaver Island Airport,-51.84025,-61.23365
4wu3teb4ffgjtepydpu3w,FK-0018,small_airport,New Island Airport,-51.746491,-61.281616
4wu8yh3d7h726nbn8ug7r,FK-0028,small_airport,Weddell Island Airport,-51.875659,-60.90601
4wucwd0hgzwwzxg87033t,FK-0015,small_airport,Shallow Harbour Airport,-51.755735,-60.534498
4wugghg60ur291kpbz5kp,FK-0004,small_airport,West Point Island Landing Strip,-51.34561157,-60.68397141
4wuum5wpqnzjgdgbbme6z,FK-0011,small_airport,Carcass Island Landing Strip,-51.26367188,-60.59207916
4wv10ku8kq0x0fztyznss,FK-0007,small_airport,Spring Point Landing Strip,-51.82929993,-60.45140076
4wv194wdcn358yn1eys9x,FK-0014,small_airport,Dunnose Head Airport,-51.753339,-60.415834
4wv23jz7ghvk8vrnv42dv,FK-0035,small_airport,Fox Bay East Airstrip,-51.955049,-60.06315
4wv293b2r3ub0wxh8jjnf,FK-0001,small_airport,Fox Bay Clay Airstrip,-51.933694,-60.061595
4wv3c0zcjw3s7prbhuhss,FK-0017,small_airport,Chartres Airport,-51.719307,-60.062361
4wv4f99c1zyd66sen5hk8,FK-0006,small_airport,Roy Cove Landing Strip,-51.53939819,-60.35639954
4wv4zruhvnfv9767v2u5x,FK-0016,small_airport,Hill Cove Airport,-51.504427,-60.144435
4wv78wfsu58p2nexn05wf,FK-0010,small_airport,Saunders Island Landing Strip,-51.37810135,-60.09160995
4wvdmsj70vw862hjscbyc,FK-0033,small_airport,Port Howard Airstrip,-51.613225,-59.516675
4wvdtk2fh32t3gtq5pyhg,FK-0009,small_airport,Port Howard Purvis Pond Airstrip,-51.5681,-59.533699
4wvs5e64yfmcgwtgczqg9,FK-0002,small_airport,Pebble Island Landing Strip,-51.30978775,-59.60877228
4wvshe1hpv4qhwd44cmjr,FK-0036,small_airport,Pebble Island Beach Airstrip,-51.310931,-59.566162
4wwphssm6c6wmwuvq1tq6,FK-0027,small_airport,Bleaker Island Airport,-52.181403,-58.858788
4wy11ye6v9dw6ggub5v9u,FK-0005,small_airport,Goose Green Airfield,-51.819282,-58.980893
4wy2jwrr90bc2jbpvjz7j,FK-0022,small_airport,Lively Island Airport,-51.995626,-58.459238
4wy3njbn39bqe6brsk0nm,EGYP,medium_airport,Mount Pleasant Airport,-51.82279968,-58.44720078
4wy5126vh1mtw0b5uhz7j,FK-0008,small_airport,Port San Carlos Landing Strip,-51.50166702,-59.00361252
4wy760pbn7e2yyvtc15kw,FK-0024,small_airport,Douglas Station Airport,-51.459942,-58.612131
4wy7rs1zces2z8zdfcs2q,FK-0020,small_airport,Salvador Airport,-51.436639,-58.378874
4wycvnzsur73k0q7yqbxm,SFAL,medium_airport,Port Stanley Airport,-51.68569946,-57.77759933
4x25yt55wkmmpzxnbchtd,AR-0690,small_airport,Río Seco Airport,-48.53148,-67.20996
4x2kx0z3g6ek4f6zpfwd0,AR-0692,small_airport,Laguna Salada Airport,-48.4233,-66.83072
4x2kz0kp6jbfr2wpvkdyw,AR-0691,small_airport,Laguna Flamenco Airport,-48.38114,-66.83524
4x2mzqxf9bs6knr7putkw,AR-0682,small_airport,Estancia La Chaira Airport,-48.17187,-66.81911
4x2se1mbtfk2h5wtf55h8,AR-0694,small_airport,Punta Mercedes West Airport,-48.42077,-66.65689
4x2sxph49d2jyx6rcd0zs,AR-0693,small_airport,Punta Mercedes Airport,-48.38884,-66.4837
4x2v09efzyxb2kemteeen,AR-0609,small_airport,Estancia Bahía Laura Airport,-48.331097,-66.417847
4x2xx7t7b20szkds8vhe0,AR-0683,small_airport,Campamento Darwin West Airport,-47.88052,-66.47105
4x2xx8stu54trgjvvpvcf,AR-0681,small_airport,Campamento Darwin Airport,-47.89664,-66.46093
4x3p88z80bhh6xs1hxrf3,AR-0680,small_airport,Estancia 8 de Julio Airport,-47.89627,-66.06144
4x87zxq6xkf96me1s4sbg,AR-0700,small_airport,La Floradora Airport,-47.11304,-66.80995
4x8ezpke651t7b497dsfw,AR-0698,small_airport,Estancia El Polvorin Airport,-47.11292,-66.48299
4x8hmzupje0jwh42yrp3n,AR-0610,small_airport,Fitz Roy Airport,-47.021639,-67.241585
4x8s4mg5vdcsgj3e644ry,AR-0699,small_airport,Mazaredo Airport,-47.07713,-66.69364
4x905uk0ufy523ygmttfv,AR-0679,small_airport,Estancia Santa Elena Airport,-47.78901,-65.92325
4x90e8v6r8s9h48t9f156,SA19,small_airport,Puerto Deseado West Airport,-47.7201004,-65.93240356
4x90kq41epj7cq02r73jc,SAWD,medium_airport,Puerto Deseado Airport,-47.7353,-65.9041
4x910rry2jxvw807v585d,AR-0697,small_airport,Tellier Airport,-47.59579,-66.07211
4x94feq992hzxmwybvt21,AR-0696,small_airport,Estancia La Estrella Airport,-47.31099,-65.9749
4x95bss3es2kxtdc0txhy,AR-0695,small_airport,Cabo Tres Puntas Airport,-47.12832,-66.06579
4xb58c117cmp40fpftu0g,SAVC,medium_airport,General E. Mosconi Airport,-45.7853,-67.4655
4xbxnuwfqyet3k9pe226q,AR-0702,small_airport,Gravina Peninsula Airport,-45.15064,-66.49068
54pkup3yxzzz2nd6x7cne,SAYB,small_airport,Base Belgrano II Airport,-77.874055,-34.62616
56tf5777zyx09qe2qbuj5,EGAH,small_airport,Halley Research Station,-75.567406,-25.516435
625w610vp6bvy244fwwm1,SCMK,small_airport,Melinka Airport,-43.895,-73.738892
627ds7hws06cqq2dz7e3g,SCON,small_airport,Quellón Airport,-43.1367,-73.635002
627gbp81u54b7xdcp2g1s,SCQX,small_airport,Queilén Airport,-42.893055,-73.476387
627mnqw16y72kpjs5ub4m,SCFS,small_airport,Los Calafates Airport,-42.67889,-73.896667
627vwhbqxeuu19g4g4cqv,SCIA,small_airport,Isla Apiao Airport,-42.599724,-73.212219
627w32bk14pt9e2ne1uwy,SCST,small_airport,Gamboa Airport,-42.490299,-73.772797
627wwbkfq3uy99e7bychv,SCAH,small_airport,Tolquien Airport,-42.44940186,-73.52469635
627x4s1v7ge7s1b8cnwmz,SCPQ,small_airport,Mocopulli Airport,-42.340388,-73.715693
627y7jn6rr9j27h2y740x,SCQE,small_airport,Quenac Airport,-42.467224,-73.335831
627zrd52ndzv4g9kq2y08,SCIB,small_airport,Butachauques Airport,-42.308334,-73.14222
62e8pn6d702wu48sd50yq,SCQW,small_airport,Quemchi Airport,-42.152779,-73.516945
62e98ewfp32q5g0tc7sxn,SCAC,small_airport,Pupelde Airport,-41.904251,-73.796571
62ey6yg2eqb1tprby33xk,SCEV,small_airport,El Avellano Airport,-41.051666,-73.35111
62eypzqtbye8c6dbebvzu,SCFI,small_airport,Fundo Tehuén Airport,-41.091965,-73.127023
62ezp4bj1jq72q7xhxm8u,SCPR,small_airport,Corte Alto Airport,-40.941038,-73.168894
62gbzfjbwcy5h63pevhdh,SCQM,small_airport,Las Quemas Airport,-40.638332,-73.127792
62gcrckmf5jhzr8unsu1m,SCOP,small_airport,Pilauco Airport,-40.553653,-73.130057
62geecq7pyrgbt8sktk91,SCHK,small_airport,Hueicolla Airport,-40.1586,-73.654404
62gfe8hh0bh1kef1c4w3t,SCSQ,small_airport,Quilpe Airport,-40.34111,-73.317223
62gs6vzuj367c6z825cwk,SCGA,small_airport,Punta Galera Airport,-40.0019,-73.696404
62gvt75n0xyf24s8pt856,SCVL,small_airport,Las Marías Airport,-39.7969017,-73.24169922
62h33ez45kfzxfhutjpvv,SCPK,small_airport,Puerto Cisnes Airport,-44.759304,-72.697763
62h7s06ftfc6w1y8g1767,SCPH,small_airport,Puyuhuapi Airport,-44.382948,-72.593631
62hj0sk3my0n4nrt9w8zr,SCOO,small_airport,Melimoyu Airport,-44.0975,-73.096944
62hnguwww9s6bgk7dr3n7,SCMA,small_airport,Puerto Marín Balmaceda Airport,-43.787633,-72.950994
62hpvhmxt1j51r1txb9re,SCHT,small_airport,Tic Toc Airport,-43.613056,-72.897499
62htb4n0ytgjqdqqqm9ds,SCLJ,small_airport,La Junta Airport,-43.978111,-72.413352
62hu5kxzsqb8s12rqej9d,SCVE,small_airport,Lago Verde Airport,-44.270832,-71.916664
62hukeyp5e3zx04y10p7g,SCBC,small_airport,Cacique Blanco Airport,-44.23111,-71.864166
62hzyhbbeswkcen7cuqyr,SCAP,small_airport,Alto Palena Airport,-43.611492,-71.805452
62j41u40kypsmjs5g3u34,SCRC,small_airport,Villa Tapera Airport,-44.626389,-71.638885
62j6c510syc80vsnn9kmt,SCRE,small_airport,Estancia Río Cisnes Airport,-44.5,-71.321663
62jgjj9dcjpufpwr3sjp5,AR-0151,small_airport,Estancia Nueva Lubecka Airport,-44.44194412,-70.4422226
62jr6bb86nhj9pwpvyq4g,AR-0408,small_airport,Estancia Caridad Airport,-43.72139,-71.24556
62jrzuekkuc9e5vru3gpm,AR-0349,small_airport,Estancia Tecka Airport,-43.61222076,-71.02194214
62jvktjqk9gyt5n4zz571,SAWS,small_airport,Jose De San Martin Airport,-44.04859924,-70.45890045
62k7qdyzhrvg5tssqjq2v,SCEA,small_airport,El Amarillo Airport,-43.006111,-72.478333
62kfkcxssj6uv94758bvk,SCFT,small_airport,Futaleufú Airport,-43.189201,-71.851097
62khgdehhfkfxe2sdr6s6,SCIK,small_airport,Isla Talcan Airport,-42.744357,-72.966861
62khweg1jeb3mkk84cf0d,SCTN,medium_airport,Nuevo Chaitén Airport,-42.781943,-72.834999
62kjnde8n28wckuz732sd,SCUI,small_airport,Pumalín Airport,-42.701107,-72.83428
62kkdgvr5pwbzkpczs714,SCLR,small_airport,Los Alerces Airport,-42.780893,-72.64524
62kmggw3pb40mwdjb8qs2,SCGN,small_airport,Caleta Gonzalo Airport,-42.56361,-72.599724
62kmwre1huzpkrp8wxvf6,SCRH,small_airport,Reñihúe Airport,-42.585556,-72.494446
62kmyqeqgtckj708z8cs6,SCPN,small_airport,Pillán Airport,-42.546112,-72.494164
62knp48m4huhz10fz0eqf,SCHD,small_airport,Chumilden Airport,-42.524445,-72.816948
62kpr9e9x9jpcwg4pr8v2,SCAY,small_airport,Ayacara Airport,-42.310832,-72.790275
62krcbf5u4dzwrz6nn5qd,SCYO,small_airport,Poyo Airport,-42.226667,-72.693611
62kw395umchn93xs416hs,SCDH,small_airport,Vodudahue Airport,-42.488888,-72.350555
62kzy491npv0grb4ktuvy,AR-0237,small_airport,Lago La Esperanza Airport,-42.217499,-71.805003
62m0m6fqmsy0dznre5xvu,AR-0134,small_airport,El Corcovado Airport,-43.5336,-71.484703
62m4vknf6h1pjr46n4zq0,AR-0464,small_airport,Trevelin Airport,-43.08797,-71.47868
62m7vhvfc2vu5gcjec5bz,SAVE,medium_airport,Esquel Brigadier Antonio Parodi International Airport,-42.908001,-71.139503
62mnmfwtjs8hbws9wbh25,AR-0102,small_airport,Cholila Airport,-42.480501,-71.456902
62n168u81xg4qd2rddw2t,AR-0148,small_airport,Estancia La Laurita Airport,-44.7761116,-70.19638824
62nykwr3fq9fqx7ufxe42,SAVP,small_airport,Paso De Los Indios Airport,-43.86669922,-69.05000305
62qz2zf5mp8k8t83rejxz,AR-0504,small_airport,Gastre Field,-42.276165,-69.221892
62rqn54r1e2m8k1j5q3gc,AR-0503,small_airport,Gan Gan Field,-42.521363,-68.287861
62s2cuvjt5jrg0eemjxzc,SCHW,small_airport,Hualaihué Airport,-42.02861,-72.689445
62s3r308q49mshf0un21b,SCRN,small_airport,Río Negro Airport,-41.962223,-72.453888
62s61nmr949f5e2t9qc4q,SCCK,small_airport,Contao Airport,-41.800304,-72.722237
62s8zkv5yznprr00qjj0r,SCBT,small_airport,Rincón Bonito Airport,-42.028889,-72.096107
62sbsdyqcfq62fr7v378g,SCSR,small_airport,Segundo Corral Alto Airport,-42.083332,-71.863892
62scg12ysccqcxmrmejfb,SCLD,small_airport,Llanada Grande Airport,-41.87189,-71.937241
62sdfxx5undcrut8jmxkj,SCPB,small_airport,Puelo Bajo Airport,-41.662224,-72.302223
62sfe9hb4vwx0yq4wk540,SCRI,small_airport,Río Frío Airport,-41.742523,-71.909854
62sgugzp395w5y57tq15j,CL-0033,small_airport,Paso El León Airstrip,-41.50647,-71.85189
62sh28q8fm1vn849017yu,SCTE,medium_airport,El Tepual Airport,-41.43889999,-73.09400177
62shhtnpph1qw292xjqpv,SCPF,small_airport,Marcel Marchant Airport,-41.455685,-72.918704
62shu09f69jm5ze6gs62g,SCPV,small_airport,El Mirador Airport,-41.3494,-72.946701
62smmvk3vy9q28kqh6fzn,SCDD,small_airport,Don Dobri Airport,-41.235473,-72.514667
62sn127gs9h00vdmtqs7d,SCFR,small_airport,Frutillar Airport,-41.130833,-73.06472
62sp4dfxbz5nwwnz52gpq,SCYU,small_airport,Cuyumaique Airport,-40.940556,-73.011667
62spmedmubzkxq1rd5xng,SCNO,small_airport,Ñochaco Airport,-40.892868,-72.879997
62sqf9cc90ef0752y0jxd,SCOC,small_airport,Las Araucarias Airport,-40.991103,-72.661123
62ss4b0wpf43g1y45pgv3,SCKM,small_airport,Cochamó Airport,-41.483334,-72.300003
62sx3hk2ntcwvdw9ndw73,SCJK,small_airport,Juan Kemp Airport,-40.889708,-72.371812
62sy3mc35jzvfs2znq0b2,SCPU,small_airport,Peulla Airport,-41.057078,-72.013525
62t1khrz0t0bnxqehyxk2,SAVB,medium_airport,El Bolsón Airfield,-41.943199,-71.532303
62t2ukvf0sbu2g4zb52dr,SAVD,small_airport,El Maitén Airport,-42.029202,-71.172501
62t8pfy6wbbhcgj87yspr,AR-0505,small_airport,Cushamen Field,-42.17195981,-70.666176
62tmuu8syh986b0v7vqrf,SAZS,medium_airport,San Carlos de Bariloche Airport,-41.151199,-71.157501
62tqhq9drfhvb880txtz4,AR-0238,small_airport,Lago Nahuel Huapi Airfield,-41.096709,-71.178021
62twnc5eyctg5wujm6qgr,AR-0295,small_airport,Pilcaniyeu Airport,-41.12666702,-70.71389008
62u0cqywe7upen4j5ksrp,SCJO,medium_airport,Cañal Bajo Carlos Hott Siebert Airport,-40.611198,-73.060997
62u2b7bnj36yh725u48gq,SCYC,small_airport,La Capilla Airport,-40.627777,-72.762222
62u32p0qyfme4bmeetbpf,SCRQ,small_airport,Rucañanco Airport,-40.5219,-72.772797
62u3f103uz360dt7gdj0u,SCKD,small_airport,El Cardal Airport,-40.4678,-72.684998
62u4ek3mfpxevd2zessnt,SCVV,small_airport,Los Maitenes de Villa Vieja Airport,-40.317423,-72.980365
62u4rgtxhwzcthk0ee2mm,SCRR,small_airport,Purrahuín Airport,-40.365278,-72.776667
62u64t396wm1wyk0v70w0,SCBN,small_airport,Cotreumo Airport,-40.4006,-72.6614
62u7dwc25xpc21mgks8tx,SCPL,small_airport,Calpulli Airport,-40.128899,-72.661697
62u7k8ve38zwc3zjxx9yf,SCZB,small_airport,Pozo Brujo Airport,-40.205278,-72.568056
62u898xwf3dn4t185uvz5,SCOL,small_airport,Refugio del Lago Airport,-40.689445,-72.345558
62u8b1ryen0gty9r5wqj6,SCYL,small_airport,Licán Airport,-40.641399,-72.411102
62uds7zqgx4pkjw6ntws2,SCXR,small_airport,Las Bandurrias Airport,-40.32,-72.224998
62ueehsdty3h5w9qqxpmg,SCGF,small_airport,Golfo Azul Airport,-40.140833,-72.283611
62ueh1y8w1p257mktunrx,SCLF,small_airport,Calcurrupe Airport,-40.244202,-72.2369
62uek2f8nru6yt942mqst,SCIF,small_airport,Chollinco Airport,-40.205799,-72.2314
62ug2fjgyjcnnjmfgj5en,SCAQ,small_airport,Arquilhué Airport,-40.198299,-72.029198
62ukj65s69vh66440sbg2,SCFU,small_airport,Loncopan Airport,-40.066399,-72.537804
62umqmr8umbhmk7041z40,SCVG,small_airport,El Vergel Airport,-39.829399,-72.488297
62un2vumfrzxux1yff6qd,SCVD,medium_airport,Pichoy Airport,-39.65000153,-73.08609772
62utnwesbs3jgtee7dw2x,SCHN,small_airport,Chan Chan Airport,-39.865799,-72.131401
62utrwp4s1dx6x0njt4vb,SCCM,small_airport,Molco Airport,-39.825001,-72.082497
62uw3mkffbgju7y7jg72j,SCPG,small_airport,Municipal de Panguipulli Airport,-39.653301,-72.360298
62v689hmu54bejcm5c0hg,AR-0269,small_airport,Meliquina Airport,-40.33530045,-71.33920288
62vd1nw07nymuuemew8rk,AR-0074,small_airport,Caleufu Airport,-40.39390182,-70.96330261
62vkj0rrugc3332gbncqm,SAZY,medium_airport,Aviador C. Campos Airport,-40.075401,-71.137299
62vqhkps4fg508tgqmm14,AR-0431,small_airport,Hosteria San Huberto Airport,-39.70388794,-71.16999817
62vt73yrrxssegqm75hup,AR-0456,small_airport,San Ignacio Airport,-39.84749985,-70.8638916
62wsbvc073gym72ryn2e5,SAVJ,small_airport,Ingeniero Jacobacci - Captain H R Bordón Airport,-41.3209,-69.574898
62xjkebt81jdnhb89q77g,SAVQ,small_airport,Maquinchao Airport,-41.24309921,-68.70780182
62xxfcme8t3m5xz5g29zc,AR-0011,small_airport,Los Menucos Airport,-40.817699,-68.074699
62y5qghr2wyvb54v3fwhk,SAVA,small_airport,Piedra Del Aguila Airport,-40.19219971,-70.01000214
635cybz4z6rhcbuepkvh3,SCSH,small_airport,El Budi Airport,-39.062778,-73.169998
635mqrej9c0cpx1kkwgtj,SCHM,small_airport,Punta El Saco Airport,-38.41,-73.900833
635mxh4r1vwzync3xdh96,SCIM,small_airport,Isla Mocha Airport,-38.384998,-73.868896
635tz8q3k4b34hv293fw4,SCQK,small_airport,Lequecahue Airport,-38.362655,-73.48978
6379u889vtbmcfegzv444,SCLB,small_airport,Los Pehuenches Airport,-37.658054,-73.629448
637c455djy76mtg0ufbmv,SCNM,small_airport,Las Misiones Airport,-37.776112,-73.383614
637tr79gk06wtn31fmpfk,SCIS,small_airport,Puerto Sur Airport,-37.026112,-73.506943
637um8cqf4k25mb8tf9q7,SCLY,small_airport,La Playa Airport,-37.216389,-73.233055
63h6dcbb1q71y54x73sh3,SCQP,medium_airport,La Araucanía Airport,-38.9259,-72.6515
63h77ner0bsqwpwcuu7cx,SCTC,medium_airport,Maquehue Airport,-38.76679993,-72.63710022
63h89v9nnnr6uen2q7cwp,SCMF,small_airport,Malloco Airport,-39.255833,-72.34333
63h8k6sev3hsn6rd86xub,SCVI,small_airport,Villarrica Airport,-39.316672,-72.228696
63h9zcv1w4rr5z8egfg8r,SCLK,small_airport,Lago Colico Airport,-39.057499,-72.074165
63hb2bxrujft72u4hr7f5,SCKQ,small_airport,Curimanque Airport,-39.326946,-72.027222
63hb7wbqy5181ukct5v4x,SCPC,small_airport,Pucón Airport,-39.292801,-71.915901
63hccdxg7nys9rru5pvsm,SCGY,small_airport,Los Guayes Airport,-39.053055,-71.993614
63hd96bpqmktf2r48fqxf,SCSU,small_airport,Santa Lucía Airport,-38.919167,-72.366669
63hdstnqw5cmjmuvjps2p,SCKC,small_airport,Roberto Chavéz Airport,-38.90694427,-72.21527863
63hecgehqvw14901d9906,SCVU,small_airport,Agromanzún Airport,-38.695835,-72.340553
63hegh7q2d9n3s7ge9dfr,SCVY,small_airport,Malla Airport,-38.691387,-72.285553
63heujct725fr7u23rgdh,SCNH,small_airport,Ainhoa Airport,-38.683333,-72.243889
63hfvy7wxryvmy7wx6wvw,SCML,small_airport,Melipeuco Airport,-38.856111,-71.8125
63hkxr8049kvxg0xzdvg4,SCLA,small_airport,General Tovarías Airport,-38.542778,-72.45472
63hmujxvc86bh7h4t3szf,SCQC,small_airport,La Colmena Airport,-38.333057,-72.586945
63hpuqq7kucggv2g1d7bv,SCGB,small_airport,Guadaba Airport,-37.977779,-72.929443
63hq68bv1042p96w1x3s1,SCTR,small_airport,Traiguén Airport,-38.271389,-72.662498
63hqw854zbzudt6wk26wn,SCVO,small_airport,María Ester Airport,-38.231945,-72.48333
63hsqej2756jn32t647bp,SCRV,small_airport,La Verónica Airport,-38.611389,-72.128889
63hswq3h2nm8545h547md,SCLS,small_airport,Esperanza Airport,-38.548889,-72.145836
63hv77g20n810yv7qe25r,SCAI,small_airport,Curacautín Airport,-38.431514,-71.923027
63hw3tt75rh33zspwwwf3,SCTO,medium_airport,Victoria Airport,-38.245602,-72.348602
63hxggmv83g8j8c0qsk4k,SCKO,small_airport,Agua Buena Airport,-37.993889,-72.249168
63j1b9v1s6qr4z8gzfgbr,SCKB,small_airport,Llollenorte Airport,-39.057499,-71.68972
63j6rjrd1d5hq23hzw3mq,AR-0037,small_airport,Alumine Airport,-38.95029831,-71.04920197
63j7eku9fy22cwxjx24d0,SCQI,small_airport,Icalma Airport,-38.733339,-71.218067
63j983uny01mtqp0unpze,AR-0307,small_airport,Pulmari Airport,-39.10055542,-70.99888611
63jgm0z0b5008jbr3x3mm,AR-0149,small_airport,Estancia Llamuco Airport,-38.79944611,-70.4347229
63jm223j0dz08ben4m9zv,SCQY,small_airport,Villa Portales Airport,-38.449902,-71.354797
63jnytw9nz0m9sbmfeest,SCCU,small_airport,Lolco Airport,-38.158054,-71.423889
63juz2nnduenswrpb606b,SA38,small_airport,Las Lajas Airport,-38.538898,-70.337097
63jz27qsvfgwp8yv0qj0b,LCP,small_airport,Loncopue Airport,-38.081902,-70.643898
63k2czwvcmjfepjxxmzdw,SCGO,small_airport,Los Confines Airport,-37.794701,-72.687202
63k2xjfpmt7tb1cdmcxdv,SCIN,small_airport,Mininco Airport,-37.848,-72.462833
63k6njkqx3vppj6q4rrxx,SCBB,small_airport,Del Bío Bío Airport,-37.587222,-72.503611
63k7pzjrmcgwfpp5v1jpc,SCGE,small_airport,María Dolores Airport,-37.401699,-72.4254
63kb9mv4hrbu8jy2ctyy8,SCPP,small_airport,Poco a Poco Airport,-37.848888,-72.008331
63kcz4w3j1kgpn4w9nd7e,SCEH,small_airport,El Huachi Airport,-37.647221,-71.753891
63kdy6y7092un21yz76vj,SCGH,small_airport,Cholguahue Airport,-37.469723,-72.138611
63kfxc4dsrq7zz4bctqr2,SCDQ,small_airport,San Lorenzo Airport,-37.523335,-71.726112
63kj75xwep1bnfe1fkjrk,SCDK,small_airport,El Patagual Airport,-37.025519,-72.982733
63knc3tp6r9wpynq70yex,SCIE,medium_airport,Carriel Sur Airport,-36.772701,-73.063103
63krbh8z2jjs5wyze2v7u,SCJC,small_airport,James Conrad Airport,-36.580454,-72.7724
63ksb5pbdb6fquhfqfne7,SCYB,small_airport,Trilahue Airport,-37.117222,-72.41111
63ksxb14uz362r1cczf07,SCGS,small_airport,Siberia Airport,-37.177223,-72.07972
63ku7gyryjpqxn8sumqut,SCHE,small_airport,Rucamanqui Airport,-37.199722,-71.896667
63kw8j776fh2f1fdv6b30,SCUL,small_airport,El Litral Airport,-36.796764,-72.417288
63kwtf96vu7y917yeupc0,SCUR,small_airport,Rucamalen Airport,-36.811943,-72.167221
63kz93dd1fpugmbjt66ny,SCFK,small_airport,Fundo El Carmen Airport,-36.641796,-72.011862
63kzbuk76xtp2g69m77qg,SCCH,medium_airport,Gral. Bernardo O´Higgins Airport,-36.5825,-72.031403
63kzvgx5jqzyjpme5te7q,SCPI,small_airport,Pullami Airport,-36.586667,-71.807778
63m120ymgvhkp5s5rt5cn,SCTA,small_airport,Santa Luisa Airport,-37.743889,-71.71
63m88jketeypfw7d1k03t,SAHE,small_airport,Caviahue Airport,-37.851398,-71.009201
63mgynxc2wcjf4vr7ze4h,AR-0131,small_airport,El Alamito Airport,-37.27361298,-70.38972473
63mjgpn9j0nvbzrug3tm8,SCAK,small_airport,Atacalco Airport,-36.919383,-71.577764
63msr726b7erknt5b1ph2,AR-0043,small_airport,Andacollo Airport,-37.20333481,-70.6966629
63mtw0rm4k4qkkpskxeu6,AR-0246,small_airport,Las Ovejas Airport,-36.999699,-70.741897
63n4k88z68t470hqxt6c2,SAHZ,medium_airport,Zapala Airport,-38.975498,-70.113602
63ndrz5pcc8esmerrq5fc,SAZW,medium_airport,Cutral-Co Airport,-38.939701,-69.264603
63pd3jd995czh8wfwjs00,SAZN,medium_airport,Presidente Peron Airport,-38.949001,-68.155701
63pdszspqb81jcce306cm,AR-0025,small_airport,Cipoletti Aeroclub Airport,-38.89310074,-67.98860168
63pe7b2gcv0y80cevrfkn,AR-0103,small_airport,Cinco Saltos Airport,-38.801666,-68.037224
63pf35futeyj1k4fhvdyy,AR-0035,small_airport,Allen Airport,-38.95809937,-67.8035965
63pfjk0k2njqtc79nmfmm,SAHR,small_airport,Dr. Arturo H. Illia Airport,-39.000702,-67.620499
63pj7ygp2uu7r9g2xr0gp,SA20,small_airport,Loma La Lata Airport,-38.413799,-68.737297
63q4fp3sc43gunq915mvt,SAHC,small_airport,Chos Malal Airport,-37.444698,-70.222504
63qerjcj46z3jeq6wqqxw,AR-0369,small_airport,Chevron Texaco Airport,-37.365002,-69.300278
63qkruvxkkjnghsds3tbg,SA07,small_airport,El Porton Airport,-37.19432,-69.612619
63qqf31yw51qmmqynczyk,AR-0059,small_airport,Barrancas Airport,-36.77560043,-69.85939789
63qthu7tqqb40wgbr3hf0,AR-0544,small_airport,Vale Airport,-37.06556,-69.39556
63qwc9gx14pu60ze5wsuw,AR-0112,small_airport,Confluencia Airport,-36.77140045,-69.53859711
63r5211rzz6548s14prq8,SAHS,medium_airport,Rincon De Los Sauces Airport,-37.390598,-68.904198
63rbukgvzyxfxbqr4e3wk,SA21,small_airport,Veinticinco De Mayo Airport,-37.80979919,-67.65930176
63s265kpsdfsjsn9ftpw9,SCKT,small_airport,Torreón Airport,-36.499399,-72.679857
63s4x2146qzft9x2ybbfj,SCQR,small_airport,Los Morros Airport,-36.122624,-72.804916
63s8tyz61mxh17yf4bpcv,SCNI,small_airport,Santa Eugenia Airport,-36.437157,-72.15917
63sbkj4ccknb006kg597k,SCKA,small_airport,Santa Marta Airport,-36.490767,-71.890692
63scb5zbgsycmdn16ekwt,SCJS,small_airport,José Abel Sepúlveda Aerodrome,-36.234129,-72.05951
63sefhhyjx00ufpj1p6g5,SCCN,small_airport,Alto Cauquenes Airport,-35.88028,-72.327225
63sek7x77wfhkpymwsqs2,SCCA,small_airport,El Boldo Airport,-35.97139,-72.224998
63sfkydvygtuxz26nyeur,SCEO,small_airport,El Salto Airport,-36.13028,-71.857498
63sfqgzwrxss1qsm85fph,SCAJ,small_airport,Las Alpacas Airport,-36.145279,-71.763054
63sfy87974wrxtn13yy84,SCHP,small_airport,Copihue Airport,-36.077499,-71.779724
63sgb3683khdyk6qzqju3,SCCE,small_airport,El Arenal Airport,-35.896389,-72.055833
63sgjqpqkdevf3m75eh1s,SCGI,small_airport,San Guillermo Airport,-36.00111,-71.829445
63sgnvmh7qk22386smujd,SCDS,small_airport,San Andrés Airport,-36.005554,-71.76667
63sgp2xsqftsjuuevu0xt,SCYR,small_airport,Los Maitenes Airport,-36.031666,-71.741112
63sgqm9dw43rud6sbfwj7,SCRT,small_airport,El Almendro Airport,-35.960556,-71.793335
63sk4buutr6sd2u6dgjxk,SCKE,small_airport,Piedra Negra Airport,-35.854443,-72.645836
63sv9s867xx6qxr1uyrsb,SCMG,small_airport,Santa María de Mingre Airport,-35.570557,-72.003891
63svy8wjx6qztufkb9w6s,SCJV,small_airport,El Parrón Airport,-35.54805374,-71.77610779
63sx0sm0mx8wukk69hepb,SCCT,small_airport,Quivolgo Airport,-35.308601,-72.392799
63syh33vx07gmkhdg55b8,SCLM,small_airport,Las Mercedes Airport,-35.5,-71.880836
63syywj97uv5j7rdyjmzm,SCLG,small_airport,La Aguada Airport,-35.342777,-71.776947
63t0gt91j88pcgmdphrd7,SCVB,small_airport,Hospital Villa Baviera Airport,-36.400276,-71.563332
63t1gzwyvsq5qsxgktfmx,SCUT,small_airport,Verfrut Sur Airport,-36.212502,-71.544441
63t4rue19704pmmqu6gjx,CL-0012,small_airport,Achibueno Airport,-36.141999,-71.374
63t54ud8bt9k89q4v7k6d,SCMS,small_airport,Las Moras Airport,-36.010278,-71.594444
63t56f8qrg1b718urefp9,SCNA,small_airport,Fundo La Caña Airport,-35.976389,-71.597222
63t5gzefkycyc02pd5m6r,SCLN,small_airport,Municipal de Linares Airport,-35.861698,-71.548599
63tj23vcg6hr9c23zkv19,SCSJ,small_airport,San Javier Airport,-35.629723,-71.699722
63tm17wr9ktq6t2d4bvsk,SCSK,small_airport,Colorado Airport,-35.663055,-71.303612
63tndxtjrknfcb9npu9tp,SCTL,medium_airport,Panguilemo Airport,-35.3778,-71.6017
63tpycf9cbbt535rt654m,SCMO,small_airport,Los Monos Airport,-35.190277,-71.41861
63tq3cn9vejg1ef1r1zje,SCFO,small_airport,La Reforma Airport,-35.458057,-71.281113
63tqtymeqw61j2bmvfef2,SCKK,small_airport,La Cascada Airport,-35.384998,-71.106667
63tr0vdzk57jnty2106s7,SCUM,small_airport,La Obra Airport,-35.300556,-71.330276
63tr6cp4pufmvc0g79tu1,SCUP,small_airport,Lontuecito Airport,-35.282223,-71.236389
63trc9gkgpyrucyrw7ckp,SCBV,small_airport,Bellavista Airport,-35.189724,-71.296669
63trtvhq90rg67f35bn1f,SCLP,small_airport,Los Petiles Airport,-35.2155571,-71.10861206
63trw8zg3e76mxbfp132v,SCXA,small_airport,Alupenhue Airport,-35.239445,-71.070831
63twfqk34x50mym8uym8g,SCBU,small_airport,El Baúl Airstrip,-35.341435,-70.9108
63u9w69hwepggghn7fpp4,SCDM,small_airport,San Damian Airport,-34.878056,-72.145554
63ubcnmmq4xqusk84dsz5,SCKN,small_airport,Licancel Airport,-34.989166,-72.01889
63ubrdvvd3xcy9ttt0s9q,SCZR,small_airport,Los Zorrillos de Tonlemu,-35.096246,-71.732719
63ucb45f7wzy1myghfefq,SCVQ,small_airport,Cuatro Pantanos Airport,-34.837223,-72.065002
63ucc05hbx37hkcwzv491,SCVK,small_airport,El Alamo Airport,-34.847778,-72.022224
63uf07yhmug2x38pdus2n,SCLI,small_airport,Torca Airport,-34.783333,-72.050835
63ufrmpcm368x8hyg7zg7,SCAO,small_airport,Palo Alto Airport,-34.733055,-71.740837
63ug2wd5z21efdqghcy1f,SCRW,small_airport,Rucalonco Airport,-34.548611,-72.04528
63uu34tpryfq4ghqhfmtu,SCPM,small_airport,Pichilemu Airport,-34.394165,-72.019165
63uufz3f49m7x1w9pe18c,SCMU,small_airport,Panilonco Airport,-34.281113,-71.946945
63uv46db5j0njfr2cg40r,CL-0010,small_airport,Mónaco Airport,-34.263583,-71.96753
63uvgn03cucte52khrv2x,SCLT,small_airport,Topocalma Airport,-34.112222,-71.938056
63v0501pq11ww2hmy6h89,SCED,small_airport,Los Cedros Airport,-35.154999,-71.585281
63v13k64md6p13wmk4k1q,SCOI,small_airport,Los Coipos Airport,-34.912778,-71.660833
63v22chtwqhc4wp9xxfsp,SCMV,small_airport,Viña San Pedro Airport,-35.105835,-71.327774
63v356tb3ubd8utmpvh5p,SCIC,small_airport,General Freire Airport,-34.966667,-71.216393
63v37vbwp7x21b048932c,SCKI,small_airport,Los Lirios Airport,-34.903889,-71.201385
63v3h5ym9nf2jzjs72v98,SCRO,small_airport,Santa Bárbara Airport,-34.958889,-71.182777
63v3pgr6q1r04h7t9d0r5,SCOE,small_airport,San Miguel Airport,-34.962223,-71.016388
63v3wj10ssecurvbgte5q,SCAM,small_airport,Alempue Airport,-34.865002,-71.101944
63v3zq3z1xg1zze58bpr9,SCUN,small_airport,Uni Frutti Airport,-34.813057,-71.046112
63v4ee31x4r5pthkjj8cd,SCVZ,small_airport,Vina Santa Cruz Airport,-34.698674,-71.563258
63v4zs61zp7cgk30gxye2,SCUZ,small_airport,Aerosanta Cruz Airport,-34.649166,-71.386108
63v5pfcsqd9qqmddqdqfc,SCPT,small_airport,La Puerta Airport,-34.613056,-71.375833
63v62gyfmw2866c93w9q3,SCEK,small_airport,Chépica Airport,-34.739723,-71.324722
63v6etvk3rj86t6ddzcv5,SCBD,small_airport,El Boldal Airport,-34.684444,-71.206108
63v72wng16037tf6zx2ue,SCAG,small_airport,Agua Santa Airport,-34.551476,-71.335891
63v91f5gqk9fr102x43nt,SCTM,small_airport,La Montaña Airport,-34.9689,-70.9333
63ve356rwgb56qpx0813v,SCSD,small_airport,San Fernando Airport,-34.5658,-70.9683
63veb5cj3fwrv6gfrhkb2,SCET,small_airport,El Tambo Airport,-34.475555,-71.014168
63vh03c1n927d3c0tcek7,SCRZ,small_airport,El Carrizal Airport,-34.443333,-71.706111
63vh7fqmf0hw53vdtp5u8,SCVJ,small_airport,Paredes Viejas Airport,-34.395832,-71.54528
63vh94rfnmsvd1m3wbxg0,SCLU,small_airport,La Laguna Airport,-34.352501,-71.663887
63vhgwhy3yny4b7m6dw72,SCMH,small_airport,La Esperanza Airport,-34.287224,-71.558334
63vhp8f2tt20v1mszg4b9,SCSV,small_airport,Viñasutil Airport,-34.448891,-71.385834
63vhrcvjs9gbtrgsn435y,SCHG,small_airport,Almahue Airport,-34.398613,-71.371109
63vj7rjwpmjdfzhwrfm4z,SCDG,small_airport,Don Aliro Garcia Airport,-34.193889,-71.568056
63vjbn65egugdexgyrc3r,SCTU,small_airport,Litueche Airport,-34.110554,-71.715836
63vjmmush6vfhdpk7wxkr,SCRL,small_airport,La Estrella Airport,-34.201111,-71.481667
63vjs78whm873nqu50h20,SCGL,small_airport,Las Aguilas Airport,-34.169167,-71.531113
63vjs78whm9g2ymun240h,SCMR,small_airport,Las Aguilas Oriente Airport,-34.169167,-71.531111
63vjuk7rwzt9h0fck819f,SCSO,small_airport,Costa del Sol Airport,-34.120834,-71.527222
63vjuxjzqcvuqew5m78tw,SCRP,small_airport,Rapelhuapi Airport,-34.105801,-71.512802
63vjwnysp7rphfxzhbt0j,SCMZ,small_airport,Marina de Rapel Airport,-34.151669,-71.445831
63vkk803sw5b4cty88f68,SCPW,small_airport,Peumo Airport,-34.40889,-71.168892
63vnx3jvx4e2zncr8b34k,SCVF,small_airport,Verfrut Airport,-34.007221,-71.391945
63vs9nv2x4e3ektsyqfzt,SCPO,small_airport,Los Paltos Airport,-34.328056,-70.964165
63vse0c2508sbu2x36mg0,SCGM,small_airport,Los Gomeros Airport,-34.361111,-70.881943
63vtt6yey8fyczmhfxhc4,SCRG,medium_airport,La Independencia Airport,-34.173698,-70.775703
63vx4vyemz5bsumbcq2nu,SCAU,small_airport,Juan Enrique Airport,-33.8936,-70.885597
63vxfj4f1t5644r1dyc35,SCVT,small_airport,Viña Tarapacá Airport,-33.766109,-70.923889
63ww0f9dc1xdfd8d105pg,SAMM,medium_airport,Comodoro D.R. Salomón Airport,-35.493599,-69.574303
63y043vfx9u8guuydrz7f,SAMH,small_airport,Valle Hermoso Airport,-35.14619827,-70.20539856
63yzuekdk15jd2gvnushu,SAMS,small_airport,San Carlos Airport,-33.7757,-69.053703
63z75rmu99er9vu9utxwj,SAMR,medium_airport,Suboficial Ay Santiago Germano Airport,-34.588299,-68.4039
63zbe9ex57s3m4dxpdfbg,SAMA,small_airport,General Alvear Airport,-35.058899,-67.692802
63zc4cm4vty5c83kb879v,AR-0166,small_airport,General Alvear Aeroclub Airport,-34.97309875,-67.72360229
64pb7zmphsgzm0kh98n3w,SCIR,small_airport,Robinson Crusoe Airport,-33.66500092,-78.92970276
65r43m7dzmc2bwvt2yk4s,SCFX,small_airport,Isla San Felix Airport,-26.2939,-80.096199
66j0d35cr2qz8qufu4ft8,SCSN,small_airport,Santo Domingo Airport,-33.656399,-71.614403
66j1rps11fw7gcjsry28m,SCRS,small_airport,El Rosario Airport,-33.488889,-71.405556
66j27vy7ksh5b9een8k3k,SCMP,small_airport,Melipilla Airport,-33.673889,-71.193611
66j29b87ckwvs2hm96f16,SCAB,small_airport,El Alba Airport,-33.658694,-71.289877
66j2frv2npnfvme3tvhjp,SCTS,small_airport,Santa Teresa del Almendral Airport,-33.575554,-71.260834
66j2mj7n2nq0brmxee1y2,SCME,small_airport,Los Cuatro Diablos Airport,-33.676109,-71.143333
66j3ut6u34xs3ejqdnmt1,SCCV,small_airport,Curacaví Airport,-33.4128,-71.165604
66j4605qyytf7z1egesbs,SCSG,small_airport,San Gerónimo Airport,-33.35329819,-71.62609863
66j4squfkhz1v8zx6f7cc,SCBL,small_airport,El Porvenir Airport,-33.273056,-71.525278
66j4typ092mu33nnvv5mb,SCCS,small_airport,Santa Rita Airport,-33.2775,-71.45639
66j4xtx1zyxc5js82zrgk,SCFL,small_airport,Fundo Loma Larga Airport,-33.279999,-71.379204
66j5gsjkm767zq1jvkt8b,SCRD,small_airport,Rodelillo Airport,-33.0681,-71.557503
66j60r93xqz02ufj1y7cz,SCVA,small_airport,Viñamar Airport,-33.356945,-71.354164
66j62wnxk1fzd6w2njt1r,SCTW,small_airport,El Tapihue Airport,-33.320278,-71.336113
66j84r69n09xr82cxtf3z,SCEG,small_airport,El Corte Airport,-33.709999,-70.913055
66j9p6q22gkssth5t79vy,SCBQ,small_airport,El Bosque Airport,-33.561798,-70.6884
66jb48gmnu220hnfn3fev,SCZE,small_airport,Estero Seco Airport,-33.744999,-70.549446
66jb5kxcwutwsptjh5hhq,SCEP,small_airport,El Principal Airport,-33.724998,-70.5103
66jcdtmqytzfdqdt11xj8,SCTB,small_airport,Eulogio Sánchez Airport,-33.456299,-70.5467
66jd67kpgmu114cppqpsm,SCHL,small_airport,Hacienda Lipangue Airport,-33.335278,-70.91111
66jd7u285qkkq0j0cpq0m,SCKL,small_airport,Lipangui Airport,-33.331112,-70.849998
66jdj0zremk4dudkesyyd,SCEL,large_airport,Comodoro Arturo Merino Benítez International Airport,-33.39300156,-70.78579712
66jexdfnkfpuzfyh6be7t,CL-0017,small_airport,Peldehue Aerodrome,-33.118575,-70.683074
66jeyzr2gtcctmz8ny01q,SCVH,small_airport,La Victoria de Chacabuco Airport,-33.050835,-70.708885
66jf1g5wg81zenym26qdc,SCLC,small_airport,Municipal de Vitacura Airport,-33.380798,-70.582199
66jf8ru30m5dnq8k6kfjm,SCHC,small_airport,Chicureo Airport,-33.267776,-70.647224
66jht3wyevkgfpq2ve406,SCVM,medium_airport,Viña del Mar Airport,-32.9496,-71.4786
66jjkqxrpxuegz7et78pw,SCER,small_airport,Quintero Airport,-32.790199,-71.521698
66jkk3n652j90n39fgm7b,SCOM,small_airport,Olmué Airport,-32.997093,-71.17169
66jm4exuqub7uc027hnue,SCQL,small_airport,El Boco Airport,-32.851112,-71.246391
66jq86nwc20hgnzvtprz4,SCZC,small_airport,Casas Viejas Airport,-32.595276,-71.347221
66jq9zcyh4z8v37jj9wp7,CL-0013,small_airport,Catapilco Airport,-32.563805,-71.287698
66jr6kny7x9yywr1r3h64,SCLQ,small_airport,Diego Portales Airport,-32.452499,-71.258888
66js556f2kgdfph24zmg5,SCSA,small_airport,Alberto Santos Dumont Airport,-33.02861,-70.879997
66jtxnf1yh3q36x77kvvr,SCSF,small_airport,Víctor Lafón Airport,-32.7458,-70.705002
66jv26kektefmp5krw6js,SCAN,small_airport,San Rafael Airport,-32.814201,-70.646698
66jx288mjz5fvqyxfhs10,SCDL,small_airport,El Algarrobo Airport,-32.471943,-70.993057
66m1hue3nhqb29g6fr2h4,SCDI,small_airport,Pichidangui Airport,-32.143055,-71.50528
66m1pm3w28wb2vuv19prz,SCLV,small_airport,La Viña Airport,-32.138054,-71.398056
66m4tebmr7qvn6y5819uj,SCHO,small_airport,Punta Chungo Airport,-31.882778,-71.476387
66m7dez6ktee14g073268,SCNP,small_airport,Nueva Pintacura Airport,-31.7075,-71.24717
66m7fvdjvb27j482v0ng8,SCUU,small_airport,El Peral Airport,-31.653369,-71.243344
66m8svv5b7t9hct50mjxj,SCSP,small_airport,El Sobrante Airport,-32.223611,-70.8
66me0j7m1rb1ec4jjy6y9,SCXB,small_airport,Las Brujas Airport,-31.786667,-71.011108
66mf9j9mcxeph4x2nxchd,SCNK,small_airport,Los Pelambres Airport,-31.873056,-70.618332
66mkmg6typnzu24r8jfq0,SCIL,small_airport,Aucó Airport,-31.577801,-71.110802
66mqqu0nyxdg2p6njws7u,SCCB,small_airport,Pedro Villarroel C. Airport,-31.221945,-71.070274
66mx32ux9x7h5xvjvbq57,SCCG,small_airport,La Pelícana Airport,-31.063889,-70.954445
66nb1gmpes9gbvkddn933,AR-0222,small_airport,La Consulta Airport,-33.73083496,-69.17388916
66njme9gsegvjhe0z3qs3,SAMC,small_airport,Cristo Redentor Airport,-32.80730057,-70.06819916
66nmhe1bndfe0b82v1r93,SAML,small_airport,Punta De Vacas Airport,-32.854599,-69.760498
66nwvurzjty2bfb02e5v0,SAMU,small_airport,Uspallata Airport,-32.538898,-69.345802
66p6cz4tkkbkjzwynu83j,AR-0318,small_airport,Rivadavia Airport,-33.227222,-68.474167
66p716v7x3nfju9kt2zbn,AR-0029,small_airport,Aerotec Airport,-33.20694351,-68.49222565
66p7cj388fk9b9qebdxz6,AR-0333,small_airport,Aeroclub San Martín,-33.061883,-68.508644
66pcwge8dgj2c80yv8fxu,AR-0493,small_airport,La Paz Airport,-33.467,-67.55
66ph2xr9y2uucsj2tcprq,SA16,small_airport,La Puntilla Airport,-32.962799,-68.873703
66pj0c11b25meyzxhfhxp,SAMQ,small_airport,Mendoza Airpark,-32.86529922,-68.87190247
66pj4x4t3pxudhnmr6krg,SAME,medium_airport,El Plumerillo Airport,-32.83169937,-68.79290009
66pjy5q050wquc13y3jey,AR-0249,small_airport,Lanzillota Airport,-32.72140121,-68.63420105
66rk0nvkk54bdytexm9fr,SA40,small_airport,San Juan Aeroclub Airport,-31.60280037,-68.54730225
66rk7he6smtuwr46wjn9s,SANU,medium_airport,Domingo Faustino Sarmiento Airport,-31.571501,-68.418198
66rm9uekyjx07e8euegye,AR-0224,small_airport,La Laja Airport,-31.35138893,-68.47305298
66t0f6cn7zth6y1unpmwy,SCOA,small_airport,Estancia Los Loros Airport,-30.789444,-71.618332
66t17nyh13mxr4d5s03jj,SCFJ,small_airport,Fray Jorge Airport,-30.68,-71.578613
66t1rpx2kjfvdkwu60fcz,SCOT,small_airport,Santa Rosa de Tabalí Airport,-30.6765,-71.401001
66t1xjw9whewt85qmpdux,SCOB,small_airport,Tabalí Bajo Airport,-30.643333,-71.401944
66t3f0hx3mjd9j42zg0ck,SCAD,small_airport,Santa Adriana Airport,-30.628611,-71.273056
66t4uhrc4mrsenbvdtvg4,SCOY,small_airport,Huayanay Airport,-30.430555,-71.532219
66t5v65jx07e50x15b424,SCTG,small_airport,Tongoy Airport,-30.266388,-71.483612
66t6hkgeb25rrsc1wqwn6,SCOV,small_airport,El Tuqui Airport,-30.5592,-71.175598
66t95s3t0dysrjcnuf57r,SCMI,small_airport,Los Tricahues Airport,-30.737499,-70.859726
66tk4wrw9zh41xt34bxds,SCCQ,small_airport,Tambillos Airport,-30.198889,-71.246944
66tkb145zbxdykfcjdkxu,SCQT,small_airport,LasTacas Airport,-30.096399,-71.364098
66tmgcfj7rujgdzexke7v,SCSE,medium_airport,La Florida Airport,-29.916201,-71.199501
66ttnhxpmfz9q2gqu8cug,SCVN,small_airport,Huancara Airport,-30.032615,-70.742083
66v4t9r4v48veg7qknpzx,SCGV,small_airport,Punta Gaviota Airport,-29.084444,-71.467222
66vd4ym4dmp9rxd97qxz9,SCEC,small_airport,Pelícano Airport,-29.144899,-70.887802
66ve4ne9vjxst734fx6eu,CL-0014,small_airport,Domeyko Airfield,-28.96787,-70.922703
66vmwyym8xyg36p4f6dqy,SCFF,small_airport,Freirina Airport,-28.526388,-71.061943
66vtmfjjcubemmu71nzbr,SCLL,medium_airport,Vallenar Airport,-28.596399,-70.755997
66wnq0ccz29336bt3k4em,SCVC,small_airport,El Indio Airport,-29.834444,-70.046112
66x5gjrp0pp2p5yvuk18s,SAMJ,small_airport,Jachal Airport,-30.248242,-68.764791
66y1t1khns8vr8fendxc4,SCTQ,small_airport,Tres Quebradas Airport,-29.26,-70.087
67j2jhb84e8h0hdyb9xmy,SCHU,small_airport,Gran Cañon Airport,-28.098888,-71.146667
67jsvmk0j0hbp25rjvp4h,SCAT,medium_airport,Desierto de Atacama Airport,-27.26119995,-70.77919769
67jtvn86tu7cz8n5hg2f3,SCCL,small_airport,Caldera Airport,-27.0781,-70.795303
67ju3sy2fxtkdswqwvjbw,SCPS,small_airport,Perales Airport,-27.3516674,-70.58944702
67jutwy8pc461g7tpzf0m,SCHA,small_airport,Chamonate Airport,-27.2968998,-70.4131012
67mf1q364djnypbjq2x7u,SCRA,medium_airport,Chañaral Airport,-26.3325,-70.6073
67mywd1v4svs90fkk3tt2,SCTT,medium_airport,Las Breas Airport,-25.564301,-70.3759
67pftpvhw0rqnmu1s7971,SA46,small_airport,Fiambala Airport,-27.6422,-67.624702
67q6k6nw9p3yyrh9h0e87,SCES,medium_airport,Ricardo García Posada Airport,-26.3111,-69.765198
67q9gj9s82xz2nfwpqptd,SCEI,small_airport,Potrerillos Airport,-26.380144,-69.475458
67tgz4t3pffjyhv2j4fg4,SCPA,small_airport,Paranal Airport,-24.6394,-70.3489
67vfsup3yhr00d7udrv1v,SCFA,medium_airport,Andrés Sabella Gálvez International Airport,-23.444501,-70.445099
67wqf8ebb1vt019h12k80,SCGU,small_airport,Aguas Blancas Airport,-24.123091,-69.845917
67wvfc7c4emp92f6fkjzk,SCLE,small_airport,La Escondida Airport,-24.294701,-69.131699
67ynbdvvgh0vh42swkb31,SCMY,small_airport,Carolina Airport,-22.703611,-70.282501
67z3gfmjvcebxcump9fgz,SCSM,small_airport,Minsal Airport,-23.585278,-68.382774
67z3mwvg4jsqxb6h4xjd6,SCSI,small_airport,El Salar Airport,-23.648899,-68.305
67zt950x6jkts0w8h3nxn,SCPE,small_airport,San Pedro de Atacama Airport,-22.9217,-68.158401
6809etcxnmwpszdqukmd6,AR-0703,small_airport,Garayalde Airport,-44.70351,-66.64073
680phzkdq48qgjdq2fje6,AR-0506,small_airport,Las Plumas Filed,-43.729305,-67.284822
680xwchx4eqdrgb89mrug,AR-0614,small_airport,Dique Florentino Ameghino Airport,-43.674928,-66.493948
6813280rkshf8g00nw9gj,AR-0500,small_airport,Camarones Airfield,-44.779007,-65.719672
681754e6np2wsygb63yhr,AR-0704,small_airport,Estancia La Maciega Airport,-44.45854,-65.60563
681d2my8deger07sd6gd9,AR-0606,small_airport,Estancia La Elba,-44.5728,-65.3706
681q0z8d5814xv23h7n04,AR-0705,small_airport,La Lonja Airport,-43.90377,-65.70839
682qus27pyjdxhvgf87pd,AR-0502,small_airport,Telsen,-42.383333,-66.95
6839xqmxcdfur9y2vx4dh,AR-0312,small_airport,Rawson Airport,-43.2944,-65.0644
683d190qq5uxuqfx3sp6d,SA34,small_airport,Trelew Aeroclub Airport,-43.2356,-65.3241
683d4tz8efbz63dekxnu7,SAVT,medium_airport,Almirante Marco Andres Zar Airport,-43.2105,-65.2703
683swxctt5kkwj5q4rhqh,SAVY,medium_airport,El Tehuelche Airport,-42.7592,-65.1027
6865x87dz043t4d7zmz7u,AR-0706,small_airport,Punta Ninfas Airport,-42.97667,-64.3528
686krjc2hn8n8yud89jg1,AR-0708,small_airport,Pico Sayago Airport,-42.815058,-64.026432
686q163ewxh7nd2f88shu,AR-0498,small_airport,Estancia La Adela Airport,-42.526064,-64.278661
686stw8rkwququ7pu0xs1,AR-0735,small_airport,Estancia La Pastosa Airport,-42.76575,-63.74213
686sxwwg1m6gfw5xrc386,AR-0499,small_airport,Punta Delgada Airport,-42.766485,-63.645458
686y2r3frvzeynyg63v15,AR-0501,small_airport,Caleta Valdés Field,-42.454874,-63.61908
688fzyme4w58ty5r3y7cg,AR-0613,small_airport,Arroyo de la Ventana Airport,-41.669222,-66.097071
6899znb84bdre4vp0y45t,AR-0335,small_airport,Bahía Dorada Airport,-41.8428,-65.0822
689e3hmqc8g3s0pznsw4n,SAVS,small_airport,Sierra Grande Airport,-41.591702,-65.339401
689h20687n43b0nzdx26g,AR-0615,small_airport,Arroyo Los Berros Airport,-41.438981,-66.090185
689zguxm6zypeevvj2pjx,AR-0619,small_airport,Puerto San Antonio Este Airstrip,-40.799532,-64.864185
68b1qqzu115ekkg4wngn2,AR-0612,small_airport,Ministro Ramos Mexía Airport,-40.523752,-67.214651
68bbqwz131zmnvpzw4en7,AR-0017,small_airport,Valcheta Airport,-40.700001,-66.150002
68cb0j7rncxpjxmtue7rv,SAVN,small_airport,Antoine de Saint Exupéry Airport,-40.7512,-65.0343
68dqgdzd7fwhjzfwm1uuq,AR-0707,small_airport,Punta Mejillón Airport,-40.98547,-64.17166
68epqrux8kbvy40cugvjf,SAVV,medium_airport,Gobernador Castello Airport,-40.8692,-63.0004
68fdp61g83xzf6nkt7gf7,AR-0620,small_airport,Guardia Mitre Airstrip,-40.418091,-63.663347
68g0nbe4kehw6xqtqxscb,AR-0390,small_airport,Carmen de Patagones Airport,-40.7781,-62.9803
68g7r06t93ddf05pydh4s,AR-0344,small_airport,Stroeder Airport,-40.207635,-62.61858
68g7r2h99k27uemnj13vj,AR-0725,small_airport,Stroeder Southeast Airport,-40.20968,-62.60485
68gc0c9jusj6cw1mq7gx2,AR-0709,small_airport,Haras Wassermann Airport,-40.59622,-62.19203
68grtc1xt9u7wszxwydsw,AR-0292,small_airport,Pedro Luro Airport,-39.4561,-62.6747
68gttgqc0vmeh4wx2v7gg,AR-0710,small_airport,Estancia El Reducto Airport,-39.7964,-62.31613
69039wcgf8v5ndhk6dxjx,AR-0381,small_airport,Villa Regina Airport,-39.073601,-67.080002
6912e00h1hrbd1r6nuh1z,SA29,small_airport,Choele Choel Airport,-39.28639984,-65.61029816
691ngzuksj6vmu0eqr7jc,SAZU,small_airport,Puelches Airport,-38.145103,-65.922943
692sf47xspud7y41pf0sv,AR-0566,small_airport,Limay Mahuida Airport,-37.1201,-66.704
6937d4me1pf4sjrj3q541,AR-0097,small_airport,Chacharramendi Airport,-37.340599,-65.646698
6946hmnjej1h617wjyhw3,SAZQ,small_airport,Rio Colorado Airport,-38.995,-64.1408
694gxv7cukg59xrgqwp88,AR-0034,small_airport,Algarrobo/La Reforma Airport,-38.7306,-63.2869
694zkwkbvs2q5rujrd7tp,AR-0209,small_airport,Jacinto Arauz Airport,-38.06610107,-63.42829895
695evpuncmsnqkdnybzp7,AR-0023,small_airport,Bahía Blanca Aeroclub Airport,-38.672059,-62.352846
695fsyvw10ybhsywg6b81,SA27,small_airport,Puerto Rosales Airport,-38.897434,-62.010217
695g54mwqk7vtj1c8v83g,AR-0308,small_airport,Punta Alta Airport,-38.8342,-62.0869
695g9q3dw2f102zpf77n3,SAZB,medium_airport,Comandante Espora Airport,-38.725,-62.1693
695uzz91kuz3966yte4m4,AR-0071,small_airport,Cabildo Airport,-38.49860001,-61.88439941
695xr2ytnc7q32f6qf04n,AR-0355,small_airport,Tornquist Airport,-38.0956,-62.250301
69651xqks9exetf1ut8w0,SAEA,small_airport,General Acha Airport,-37.400799,-64.612801
696b077nug3y67zktkdzh,AR-0425,small_airport,General San Martin (La Pampa) Airport,-37.94972,-63.6175
696rc77cewdngphcubnb1,SAZR,medium_airport,Santa Rosa Airport,-36.588299,-64.275703
696rfds5ere6j78uv2j2r,AR-0553,small_airport,San Alberto Airport,-36.592071,-64.220437
696rg6kxmx8ke7yz6pmte,AR-0138,small_airport,El Pampero Airport,-36.59280014,-64.18669891
696swynw5m2pw837d84ej,AR-0262,small_airport,Macachin Airport,-37.143716,-63.678678
69716wwgj0dnu0tgx0zhv,AR-0122,small_airport,Darregueira Airport,-37.71279907,-63.16189957
6976kqnm5hyrkcus74gyg,AR-0304,small_airport,Puán Airport,-37.53939819,-62.73419952
6979jxc8fsy6uptpqg015,AR-0128,small_airport,Saavedra Airport,-37.750242,-62.33425
697ddc5sempf2nfb8urk1,AR-0541,small_airport,Servicios Aeronauticos,-37.523004,-62.452319
697dh3y6g0g6jyv8vmvwk,SAZE,small_airport,Pigüé Airport,-37.607098,-62.382641
697fzxjsdv2ksgghh8n4j,SAZC,small_airport,Brigadier D.H.E. Ruiz Airport,-37.446098,-61.889301
697k73k86rty7wvt1hc7m,AR-0517,small_airport,Fumagro Airport,-37.214729,-62.780581
697k7m5bp6e4tx4633t6t,AR-0082,small_airport,Carhue Airport,-37.1942,-62.7814
697nzstq3nhzp5znp4j5g,AR-0323,small_airport,Salliqueló Airport,-36.75640106,-62.94440079
697tejnf9jj9cqg6d5820,AR-0621,small_airport,La Sistina Airstrip,-36.974031,-62.436969
697vqdkfv669vqyjt2z35,AR-0198,small_airport,Huanguelen Airport,-37.03305435,-61.93416595
6983ue71px1ku7bye2xz6,AR-0565,small_airport,Santa Isabel Airport,-36.23682,-66.94624
6993yehm789c0cxd31bnz,AR-0377,small_airport,Victorica Airport,-36.23749924,-65.45055389
69c8kkhmwcj7jjh8vvx9p,AR-0567,small_airport,Nueva Galia Airport,-35.089382,-65.197724
69cue1s68ww7teu62bp0j,AR-0570,small_airport,Villa Valeria Airport,-34.35653,-64.90136
69cw8d1r2zskwk9kvn9eb,AR-0143,small_airport,Estancia Don Roberto Airport,-34.00139999,-65.36689758
69cx3rpvsbpgfsmgw1ycn,AR-0671,small_airport,Las Totoritas Airport,-33.842439,-65.324836
69cxgr3h8fkxvm33m37jk,AR-0415,small_airport,Estancia Santa Romana Airport,-33.753334,-65.246391
69d7ckjhtggtpsf4w2s14,AR-0130,small_airport,Eduardo Castex Airport,-35.8805542,-64.27388763
69d8hcwxc74h9ju6gz5yq,AR-0559,small_airport,Estancia Los Lobles Airport,-36.552913,-63.766652
69dbkt3w2yy6fh5uf16ku,AR-0518,small_airport,Establecimiento La Maria Pilar Airport,-36.488606,-63.432958
69dfb59ng5pu19uypmzwu,SA12,small_airport,Quemu Quemu Airport,-36.0587,-63.6313
69dnugf4hq2sc408y7w90,AR-0200,small_airport,Ingeniero Luiggi Airport,-35.35499954,-64.47583008
69dsvjswecufzf2k0mkwv,SAZG,medium_airport,General Pico Airport,-35.696201,-63.758301
69dtmk614twpusffgvwrj,AR-0445,small_airport,Ñancu Airport,-35.6161,-63.7508
69dtn1cfjsyp329z09fm7,AR-0094,small_airport,Cereales Anahi Ruca Airport,-35.67361069,-63.71805573
69dv7098fz23q92zfxvy0,AR-0632,small_airport,Estancia Trebolares Airport,-35.636734,-63.498798
69dz6m2b62wxr4w8bsx2v,AR-0203,small_airport,Intendente Alvear Airport,-35.2592,-63.5328
69dz6ppc3gdf9gkusk40b,AR-0204,small_airport,Intendente Alvear,-35.2494,-63.5342
69dzb8pk9uq20p0j5pqec,AR-0272,small_airport,Azcarate Irastorza Airport,-35.1994,-63.6008
69e1e6gj6eb7mxtmxekgy,AR-0293,small_airport,Pellegrini Airport,-36.2828,-63.1342
69e29jsfbkwhw9vddru7d,AR-0213,small_airport,Tres Lomas Airport,-36.4439,-62.8792
69e77eddc46h3fmcygxjm,SAET,small_airport,Ñanco Lauquen Airport,-35.9715,-62.7724
69e7j7e8y0rbsbutmxhu3,AR-0218,small_airport,Trenque Lauquen Airport,-36.0158,-62.6939
69e7jp52jngv74pxngqy7,AR-0492,small_airport,La Argentina Airport,-35.996667,-62.705278
69ec0nb76p8k830d5tuwr,AR-0669,small_airport,Estancia El Triángulo Airport,-36.349041,-62.226133
69enn9h5de7wrxqnqgs28,AR-0041,small_airport,América Airport,-35.5017,-62.99
69etd4q9wc05z7bwxuwyh,AR-0763,small_airport,Estancia 10 Noviembre Airstrip,-35.58308,-62.481018
69euqtuyhd978vr79svc3,AR-0439,small_airport,La Mariela Airport,-35.7828,-61.9342
69ew6qyyymx89m28zpsxw,AR-0085,small_airport,Carlos Tejedor Airport,-35.4256,-62.4697
69f1zjhvn13mmx8fmur8t,AR-0199,small_airport,Huinca Renanco Airport,-34.82030106,-64.37310028
69f2dcdvkgrk14jxzgzqc,AR-0313,small_airport,Realicó Airport,-35.05920029,-64.21109772
69fe8d34e2xyurksp5pfr,AR-0599,small_airport,Antares Airport,-34.528223,-63.960879
69fnyjy75qxyh3zrfv2mt,AR-0563,small_airport,Beneficios S.R.L. Airport,-33.93759,-64.415095
69fnymexqzkhmd59jzv8g,AR-0562,small_airport,Don Angel Airport,-33.93823,-64.40774
69fnynt8p8jmfy4s81nmy,AR-0564,small_airport,Comequechen Airport,-33.93402,-64.415946
69fnzjr7mmd8m6gq8gky1,AR-0267,small_airport,Martín Fierro Airport,-33.94029999,-64.36969757
69fvy1ufzk7vrv3ckgf7v,SASQ,small_airport,Laboulaye Airport,-34.135399,-63.362301
69fw91ybzxuxgzkd8ytcj,AR-0171,small_airport,General Levalle Airport,-34.00388718,-63.93083191
69g0ymjp052r00uuz767m,AR-0010,small_airport,General Villegas Airport,-34.995728,-62.999725
69g2j55qv05ueprxngyz5,AR-0205,small_airport,Fumigaciones Herbinsec Airport,-35.138611,-62.705278
69g57w7x5jh9681mnfu43,AR-0162,small_airport,Fortín De Gainza Airport,-34.5494,-63.1225
69g9cq8d0ymd7ee922m34,AR-0435,small_airport,La Chacra Airport,-34.81255,-62.522467
69g9f0t98cbf1fywj3q7g,AR-0040,small_airport,Ameghino Airport,-34.845619,-62.482648
69g9fe234c83cj34x6tyc,AR-0460,small_airport,Sigfrido Rohr Aviagro S.R.L. Airport,-34.8306,-62.4678
69g9fm9d3uk6pr7b1hygk,AR-0586,small_airport,Augusto Leguizamon Airport,-34.818011,-62.477107
69gb0hq8e5mkxwme901px,AR-0441,small_airport,Las Lilas Airport,-35.1328,-62.2175
69gbj5xn9jpry301fs198,AR-0545,small_airport,Aeroagereo,-35.13588,-61.99717
69gbj7s4cvcn011g1w3ub,AR-0607,small_airport,Fumigaciones Herbinsec Airport,-35.13652,-61.99028
69gbkf0vjrmnyvd8dctcs,AR-0546,small_airport,La Amalia,-35.10042,-62.01656
69gfp57kq8fqg84ns4pbq,AR-0174,small_airport,General Pinto Airport,-34.7861,-61.9142
69gkvygwqyuq9k4yrsvt4,AR-0322,small_airport,Rufino Airport,-34.2831,-62.6719
69gmjv414hzhewk9637ub,AR-0547,small_airport,BSG Airport,-34.24968,-62.67416
69guu8ycxfhtvbzk2c8dj,AR-0455,small_airport,San Gregorio Airport,-34.3169,-62.0192
69gzf1rgvnq5tfkncebxn,AR-0603,small_airport,Samave Airport,-33.786401,-62.127806
69gzvdtmgsdrnwzkru700,AR-0459,small_airport,Savesa Airport,-33.7792,-61.9775
69h7w56strt2c1r10svdz,AR-0113,small_airport,Coronel Dorrego Airport,-38.7411,-61.2561
69hgw4fmv4g5dy5g8kmy4,AR-0592,small_airport,Copetonas Airport,-38.743657,-60.553332
69hn3n63qg016qpx099kt,AR-0458,small_airport,Santo Tomás de La Sierra Airport,-38.241804,-61.827675
69hndsfyjgcz92stbm7hz,AR-0453,small_airport,Saldungaray Airport,-38.205278,-61.761111
69hru357n5s3b9496ne40,AR-0114,small_airport,Coronel Pringles Airport,-38.00666809,-61.33194351
69j52qdxrp858chnnhpwp,AR-0765,small_airport,Estancia El Destino Airfield,-38.76672,-60.45403
69jje5vk055nn4zs9y63z,SAZH,medium_airport,Tres Arroyos Airport,-38.3869,-60.3297
69jjeb7n7t58z26z9s27j,AR-0558,small_airport,Santagiulian Airport,-38.40573,-60.29968
69jju6urc5fq8j9ey6yvz,AR-0447,small_airport,Petrazzini Airport,-38.3478,-60.2761
69jpxsfw1tnru1htw775k,AR-0180,small_airport,Gonzales Chaves Airport,-38.02949,-60.135654
69jtgjd8c71ekkbz0ehkp,AR-0454,small_airport,San Cayetano Airport,-38.3339,-59.6303
69jtgjd8cv0uuqyfrut8k,AR-0326,small_airport,San Cayetano Heliport,-38.33388901,-59.63027954
69jzc3xkyrkxtufh0fpur,AR-0438,small_airport,La Madrugada Airport,-38.0036,-59.3489
69kf8cw8ydv7g0mutwf64,AR-0241,small_airport,Laprida Airport,-37.520913,-60.778141
69kkjx1vm3yrrvp2jq6ex,AR-0169,small_airport,General La Madrid Airport,-37.226261,-61.279101
69kpf6buuy0gjmg9rp7qx,AR-0121,small_airport,Fumigaciones Rodriguez Airport,-36.590491,-61.774888
69kpfhc9ezrf6sjvcszvc,AR-0596,small_airport,Daireaux Airport,-36.580056,-61.784878
69m2n750hgu4m49tbk4hd,AR-0766,small_airport,La Moderna Airfield,-37.95225,-59.8382
69m3rruf59x0q0yuzexgg,SAZJ,small_airport,Benito Juarez Airport,-37.7061,-59.791901
69mjsqudb04vdvngs716r,AR-0026,small_airport,Olavarria Aeroclub Airport,-36.96440125,-60.2757988
69mnjsrs5tc2m5yceukwn,SAZF,small_airport,Olavarria Airport,-36.889999,-60.216599
69mqmqh3xbkf5y8gy4ssd,SAZA,small_airport,Azul Airport,-36.836899,-59.880299
69muhjxh83pud0t07452z,SAZT,medium_airport,Héroes de Malvinas Airport,-37.234634,-59.228647
69mup2184m1c53gywzbd1,AR-0028,small_airport,Tandil Aeroclub Airport,-37.265598,-59.0933
69nh1k1h99bdbedfvwpr3,AR-0728,small_airport,Campomar Airport,-38.64912,-59.00613
69nhw13spvsut7520v2hm,AR-0538,small_airport,Pulverizaciones Aerosur Airport,-38.576401,-58.796429
69njj8gr0hbktfr109k46,SAZO,medium_airport,Necochea Airport,-38.490746,-58.816337
69njjg5su1b4ye2e55en1,AR-0432,small_airport,Iriberri Airport,-38.478789,-58.804836
69nkbqqk47c0huf8cm65m,AR-0727,small_airport,Quequén Airport,-38.505,-58.69127
69nkvksqjx3tcb42j3kne,AR-0726,small_airport,Bahía de los Moros Airport,-38.51425,-58.47415
69nmrsz39kkgwtz716c3p,AR-0278,small_airport,Moromar Airport,-38.425775,-58.371331
69nnwr959s5j4w7wu0w27,AR-0255,small_airport,Loberia Airport,-38.1906,-58.7864
69npp0j5fdwb8ku8t9r9y,AR-0256,small_airport,Nika Airport,-38.143874,-58.7479
69ntthh6sbnpc74fkmx02,AR-0063,small_airport,Bellamar Airport,-38.3858,-58.1336
69ntv9wrsmxww63d05t0g,AR-0244,small_airport,Las Cortaderas Airport,-38.3547,-58.1089
69nwjf1hpr7ezcj6zbuy6,AR-0413,small_airport,Estancia Lucila Airport,-38.3086,-58.105
69nye0ux4204hx5djxfds,SA14,small_airport,Miramar Airport,-38.2271,-57.8697
69nzz80tbcdc70xuzf0sr,AR-0061,small_airport,Batan Airport,-38.0117,-57.6775
69pp8mh6fbwb6f0pgz16x,AR-0291,small_airport,Parque Hermoso Airport,-38.0287,-57.6393
69pp8p9bvdryrmyu606ed,AR-0391,small_airport,Mar del Plata Gliding Club,-38.0153,-57.6536
69q59c01yysrpf0j33mtz,AR-0393,small_airport,Comandante Eduardo A. Olivero Airport,-37.347686,-58.9853
69q63488xhecfd89bkc2h,SA13,small_airport,Estancia La Estrella Airport,-37.559399,-58.666
69q823ej9egk1e5q46zk9,AR-0024,small_airport,Balcarce Aeroclub Airport,-37.9156,-58.3442
69q9r6ky1nk1ctx1y78x6,AR-0150,small_airport,Estancia Los Cardos Airport,-37.7356,-58.0342
69qdguh7um7nh1repuemd,AR-0513,small_airport,Estancia La Alborada,-37.462706,-58.188557
69qfv6zrvdv3kht477270,AR-0115,small_airport,Coronel Vidal Airport,-37.4689,-57.7669
69qkt6w09fzm2bm7du891,AR-0053,small_airport,Ayacucho Airport,-37.1639,-58.4719
69qnb1gkhxkvzs86nnpq6,AR-0027,small_airport,Rauch Airport,-36.771887,-59.057837
69qy5s6dqm9ufdstv5e9g,AR-0264,small_airport,Maipú Airport,-36.8903,-57.8503
69r01yk3kbs4b0gh9cez0,SAZM,medium_airport,Ástor Piazzola International Airport,-37.9342,-57.5733
69rknm8856675u9rmrbmr,SAZV,medium_airport,Villa Gesell Airport,-37.2354,-57.0292
69rkzrv8tmu4jjem05psh,AR-0296,small_airport,Pinamar Airport,-37.0911,-56.9783
69rm7c1zn8xtxrt3f8erc,AR-0172,small_airport,General Madariaga Airport,-37.0392,-57.1372
69rnb34yd52byz98tjt24,AR-0132,small_airport,Establecimiento El Araza Airport,-36.7756,-57.6414
69s16vheecpfpurf80h1b,AR-0193,small_airport,Henderson Airport,-36.31470108,-61.74779892
69sd4hmtb8z6f4zwdm82r,SAZI,small_airport,Bolívar Airport,-36.1866,-61.0764
69sh06swj6q2k1ve2n637,SAZP,medium_airport,Comodoro Pedro Zanni Airport,-35.8446,-61.8576
69sjfwse0ubs9jpf92wsr,AR-0638,small_airport,Estancia 13 de Abril Airport,-35.515511,-61.758924
69sm4dmzg9cfjy4usdjry,AR-0288,small_airport,Haydee Airport,-35.669894,-61.405525
69sm5ymyx3x7z01dkuhge,AR-0591,small_airport,Ottaviani Airport,-35.648137,-61.350425
69sm71jrukxh80tjkqbf5,AR-0083,small_airport,Carlos Casares Airport,-35.6328,-61.3842
69smesc4bdzsd7gu9dxqd,AR-0590,small_airport,Malatini Airport,-35.569123,-61.368224
69spr4rbth7uhg98j9k9q,AR-0536,small_airport,Fumigaciones Ortega Airport,-35.275617,-61.55652
69swt7evucwk0vv5rmbeq,SAZX,small_airport,Nueve de Julio Airport,-35.3997,-60.9358
69szrx68wsxg4h9nncqdh,AR-0676,small_airport,Laguna El Abuelo Airstrip,-35.24815,-60.487
69tfz41tk6d5x4xzbbmty,SAEL,small_airport,Las Flores Airport,-36.0672,-59.1042
69thpmdt02ccs7438petr,SA06,small_airport,Santa Rita Airport,-35.8283,-60.1467
69tjzdxjbbdnvyz1ydrz3,AR-0560,small_airport,Estancia La Criolla Airport,-35.537034,-60.129512
69tmqy6fqpr0jn0g25hn4,SA36,small_airport,Saladillo Airport,-35.604891,-59.816513
69tnr48m3vhz27m7z1vbq,AR-0561,small_airport,Servicios Agroaereos Airport,-35.449205,-60.160708
69tpbk3pf5e3k8f7c1bdd,AR-0675,small_airport,Agroaereo Bragado Airport,-35.1755,-60.4563
69tq2ehvf0h7u6dhp81he,AR-0373,small_airport,Veinticinco De Mayo Airport,-35.4464,-60.0886
69trp2v3pwrxnfb0x19r1,AR-0668,small_airport,Norberto de La Riestra Airport,-35.327705,-59.791042
69ts8jfxunxd972qfj55k,AR-0548,small_airport,Abelenda Airport,-35.738533,-59.76201
69tzwq1dkd1sj2x75j6r8,AR-0257,small_airport,Lobos Airport,-35.210784,-59.137149
69u1xb6b95e3256zxnpy5,AR-0253,small_airport,Lincoln Airport,-34.8911,-61.5306
69u3hypwkwgk4826n996n,AR-0229,small_airport,La Nueva Airport,-34.9464,-61.3042
69u400xkchb8329mt6956,AR-0033,small_airport,Alfredo Sanchez Airport,-34.8011,-61.865
69u7bfb1s1jp7x991fuub,AR-0081,small_airport,Vedia Aeroclub,-34.4817,-61.4903
69u952tfsypucwj1u7dv2,AR-0176,small_airport,Los Toldos Airport,-34.97726,-61.020942
69ubn9rksfjf10vujju8g,AR-0674,small_airport,Mahmet Fumigaciones Aereas Airport,-35.1486,-60.5245
69ubp0v4t24tucb48fcvj,AR-0588,small_airport,Malfatto Airport,-35.1517,-60.5056
69ubp9zsg1bpj3vy106v6,AR-0005,small_airport,Bragado Airport,-35.145811,-60.480294
69ucyyub7qwwzx93p1nhf,AR-0595,small_airport,Las 2 A Airport,-34.811475,-60.51701
69udgemy7uydrznmjjbvk,AR-0240,small_airport,Laguna De Gomez Airport,-34.6539,-61.01
69ue56u6ewz2nuyh4kvr0,AR-0065,small_airport,Blondi Airport,-34.61333466,-61.02305603
69ue7c8czn9m2weyvh9b4,AR-0608,small_airport,Parajon Airport,-34.576385,-61.005748
69um71ujxptynst99w8m7,AR-0048,small_airport,Arribeños Airport,-34.2228,-61.3858
69um86k43377257f7hndu,AR-0418,small_airport,F.A.T. Airport,-34.1767,-61.5069
69unv92wf8m073umf0u53,AR-0345,small_airport,Suboficial Auxiliar Miguel A. Cardone Airport,-33.9617,-61.6325
69ursk2tw855pppee0e78,AR-0530,small_airport,Plus Agroservicios Aereos S.R.L. Airport,-33.8136,-61.3357
69uuzpyj36cqmgeeqyhq1,AR-0384,small_airport,Belingueres Aviación Airport,-34.2778,-60.5044
69uv777ehm8yzws1t6e0s,AR-0319,small_airport,Rojas Airport,-34.215,-60.6725
69uvjrt872mhxcdtpyvbx,AR-0422,small_airport,Fumigaciones Fredy Airport,-34.2361,-60.5819
69ux4b7xdgbdk2utzws63,AR-0107,small_airport,Colón Airport,-33.9231,-61.0461
69uxpp159vr08z86emy5u,AR-0127,small_airport,Agrocelta Servicios Aereos Airport,-33.8867,-60.8628
69uz5cjrx0je8rkv6xq0m,SAAN,small_airport,Pergamino Airport,-33.919,-60.648
69uz6sx2fthnszvm5vyu0,AR-0540,small_airport,La Noria Agricultural Airport,-33.85696,-60.70038
69v31gj0d8xh3wnynpee5,AR-0101,small_airport,Chivilcoy Airport,-34.9639,-60.0333
69v51k4bpyqb7us5zxcbv,AR-0096,small_airport,Chacabuco Airport,-34.6069,-60.4097
69vbfbjksxz2n6q9xn1u5,AR-0281,small_airport,Navarro Airport,-35.0236,-59.2858
69vc3kzrqemts1k9u57hy,AR-0202,small_airport,Establecimiento La Susana,-34.909168,-59.348888
69vdzn3fhzkq2hsq1vuqv,AR-0271,small_airport,Mercedes Airport,-34.638136,-59.455395
69ves07k6ku3xpc0x3tck,AR-0254,small_airport,El Mirador,-34.538887,-59.585278
69vezub7djx4ybe4g4pc5,AR-0031,small_airport,San Andrés de Giles Airport,-34.470347,-59.42461
69vfyt2uhku1vvgxr0mx7,AR-0417,small_airport,Estancia Villa María,-34.6433,-59.1272
69vgrwh7xb4wv3614xnjk,AR-0252,small_airport,Luján Airport,-34.5514,-59.0783
69vhu4ssncp8ug5myn0pf,AR-0324,small_airport,Salto Airport,-34.306864,-60.286489
69vhx17ybhb42p0uv1e83,AR-0461,small_airport,Skare Airport,-34.35718331,-60.15598297
69vkjw6xe8gx7szhr4d4x,AR-0086,small_airport,Carmen de Areco Airport,-34.4175,-59.8719
69vmtw1nvn873f7wpegx7,AR-0225,small_airport,Quebracho Herrado Airport,-34.1553,-59.8739
69vnpkyg155t7fdb9pubw,AR-0486,small_airport,La Cura Malal Airport,-34.074938,-60.140829
69vq1egx1nyp9pq8preve,AR-0047,small_airport,Arrecifes Aeroclub Airport,-34.079724,-60.046412
69vqrerv05rgyns6pnpr2,AR-0630,small_airport,Estancia La Elisa Airport,-34.038888,-59.776944
69vsnkzb9061u9h1fgt4v,AR-0294,small_airport,LAD 2198 Juan Jose Angelini,-34.426945,-59.480278
69vsqbpc8qn1rjsgkywum,AR-0239,small_airport,Laguna Aeroclub Airport,-34.40888977,-59.45833206
69vt8u9hu7rwqd6zfmj6r,AR-0080,small_airport,Aeroclub Capitan Sarmiento,-34.1639,-59.7311
69vtr65tbkejmngnudpbc,SAAA,small_airport,San Antonio de Areco Airport,-34.2214,-59.4422
69vv2sstp5zhtsnd8w44q,AR-0429,small_airport,Haras La Pomme Airport,-34.2078,-59.3856
69vvzs8vjeqkyrp2nkth8,AR-0383,small_airport,Zarate Airport,-34.119912,-59.083198
69vw3e5ugsjjn9w26f560,AR-0485,small_airport,San Patricio Airport,-34.0403,-59.6944
69vxqu00f6rfu2z4n7138,AR-0387,small_airport,Buenos Aires Airport,-33.859722,-59.468887
69vxw4ywm5kwdghgj9z8h,AR-0058,small_airport,Baradero Airport,-33.821693,-59.492806
69wcqe8w1ghxu2qrdykwp,SAZD,small_airport,Dolores Airport,-36.3225,-57.7214
69wfe66hnbjb58h6hhsz1,AR-0089,small_airport,Castelli Airport,-36.11000061,-57.86194611
69wgfypkkvfj2pbx0k9gy,AR-0535,small_airport,Don Alberto Airport,-35.8696,-57.8768
69wktes646gckgj5g8h1m,AR-0167,small_airport,General Belgrano Airport,-35.7519,-58.4633
69wnqbcdhbezzccwzs7ks,AR-0334,small_airport,San Miguel del Monte Airport,-35.4594,-58.7636
69wtbph841ncz34wk55h4,AR-0311,small_airport,La Igualdad Airport,-35.5133,-58.3531
69wtycxtppjr0nxqx6tfz,AR-0100,small_airport,Chascomús Airport,-35.542621,-58.052137
69wxcenvqdwppdsdzsykd,AR-0395,small_airport,Brandsen Airport,-35.1828,-58.2839
69x8j78mwm83tqpynx3cx,SAZL,medium_airport,Santa Teresita Airport,-36.5423,-56.7218
69xnwedu518ns5eshcwq8,AR-0375,small_airport,Veronica Airport,-35.4,-57.3667
69xqbk4sn5x4cs9k2bvkm,SAAI,small_airport,Punta Indio Naval Air Base,-35.353298,-57.290001
69y0r8hfqeqn09v033jrj,AR-0079,small_airport,Cañuelas Airport,-35.1119,-58.7261
69y176fku2k51b1hxw23m,AR-0170,small_airport,General Las Heras Aeroclub,-34.9206,-58.9164
69y3guz9bzrvzebc5qf7m,SAEZ,large_airport,Minister Pistarini International Airport,-34.8222,-58.5358
69y45c29fgb71gmnnhquj,AR-0266,small_airport,Marcos Paz Airfield,-34.7975,-58.8969
69y48wekw5sbqff5g0usr,AR-0399,small_airport,General Rodriguez Ildefonso Durana Airport,-34.6803,-59.0358
69y5qhqtzj0yxsuknxvqs,SADJ,small_airport,Mariano Moreno Airport,-34.5606,-58.7896
69y69x3egtpj20de82hw2,SADM,small_airport,Morón Airport,-34.6763,-58.6428
69y6kvbux70ve8w86k09p,SADZ,small_airport,Matanza Airport,-34.728367,-58.500855
69y745rwerjb8nkdnw6c3,SADP,medium_airport,El Palomar Airport,-34.6099,-58.6126
69y78chwd31xepwyp6nph,SADO,small_airport,Campo de Mayo Military Airport,-34.5344,-58.6717
69y7fzbre65b9e2y0kfyg,SADF,medium_airport,San Fernando Airport,-34.4532,-58.5896
69y7qsxn1f5tgprc35665,SABE,large_airport,Jorge Newbery Airpark,-34.5592,-58.4156
69y8q5p963vpk4zqsfw7h,AR-0179,small_airport,Gomez Airport,-35.0956,-58.0853
69y98qh3fzn14fu96pyd2,AR-0219,small_airport,La Caida Airport,-34.859281,-58.342426
69y9bux65w1y6e230t9z6,AR-0137,small_airport,El Pajaro Airport,-34.823537,-58.316307
69yb3k6tjb0dsdxpp4m9x,AR-0298,small_airport,Poblet Airport,-35.0881,-57.9492
69yc49d25tqv12kpkkgfw,SADL,medium_airport,La Plata Airport,-34.9722,-57.8947
69yc9560pkxp1vqjz0unk,AR-0354,small_airport,Tolosa Airport,-34.8747,-57.9608
69yd7d9esc9fqx3umnbjg,AR-0158,small_airport,Ezpeleta Airport,-34.7464,-58.2033
69ydd9gsx45ef2g9bbnbp,SADQ,small_airport,Quilmes Airport,-34.7064,-58.2444
69ygvrkszmp5ytfegrq81,SUCA,small_airport,Colonia Laguna de Los Patos International Airport,-34.456402,-57.770599
69yhvupunmd3sbzy7we50,AR-0062,small_airport,Escobar Aeroclub,-34.2986,-58.7989
69ytd93fufern51jt9ktq,SA04,small_airport,Isla Martin Garcia Airport,-34.1821,-58.2469
69ytw82m618gr7uk18yj6,UY-0015,small_airport,La Arcadia Airport,-34.18717,-58.0733
69yv0cpxgbz3h5xmzzquq,SUAN,small_airport,Anchorena Airport,-34.270516,-57.964383
69ywbb8v46pvdhrfzsdmb,SUCM,small_airport,Zagarzazú International Airport,-33.96611,-58.325279
69zdrz0vhpv2gy0kszun1,UY-0016,small_airport,La Rabida Airport,-34.72139,-56.61134
69zdv2z49s5w2ju4gt3px,UY-0017,small_airport,Kiyú Airport,-34.66828,-56.71273
69zem5d9t127zp5d264r1,UY-0018,small_airport,La Horqueta Airport,-34.56547,-56.72975
69zfpdv61rj6s95syrjhe,SUAA,medium_airport,Ángel S. Adami International Airport,-34.7892,-56.264702
69zgxsxwwtpkx4jtpf0qp,SUCN,small_airport,Aeroclub Canelones,-34.515153,-56.261384
69zhhqgu497uwr0g5dg4f,SUJL,small_airport,Juan Lacaze Airport,-34.415352,-57.46422
69zkvcxe39jnk8ft4mrtn,UY-0008,small_airport,Ricardo Raver Airport,-34.312485,-57.041631
69zm4q060p1tm460r72dc,UY-0022,small_airport,Nueva Helvecia Airport,-34.244003,-57.205465
69zpmchhusdr7th6wz603,SUCD,small_airport,Cardona Airport,-33.875502,-57.397875
69zssddjs2e5f74ur1q53,SUSJ,small_airport,San José Airport,-34.350554,-56.752438
6cb1cyy2hecvh009bn9fy,SUBL,small_airport,Captain Juan Manuel Boiso Lanza Air Base,-34.811533,-56.164317
6cb1v46exuxzmk3yhp44b,SUMU,large_airport,Carrasco General Cesáreo L. Berisso International Airport,-34.835647,-56.026497
6cb4ny80jh56ufug0ef18,UY-0020,small_airport,Cumbres de Carrasco Airport,-34.76896,-55.95315
6cb4qdd2whq5beem92pbd,SUGA,small_airport,Military Aeronautical School,-34.7469,-55.961
6cb9wcc1n4d804gwkzekn,SUPL,small_airport,Centro Aeronáutico Piriápolis,-34.88278,-55.24861
6cbcdqcd3f95eypcdh9wj,SULS,medium_airport,Capitan Corbeta CA Curbelo International Airport,-34.855099,-55.094299
6cbcqkbk4m3b9dgxv3289,SUPE,small_airport,El Jagüel / Punta del Este Airport,-34.909716,-54.920212
6cbd1rje5xx2zcts3ff24,UY-0019,small_airport,Wings of Freedom Airport,-34.76568,-55.48423
6cbn17nngbccxgwfs0e9q,UY-0013,small_airport,Florida Aviation Center,-34.08392,-56.186665
6cbsuq7chetd44c5xdtqk,SUCL,small_airport,La Calera Airport,-34.286766,-55.354757
6cbsx78e1rnue6ht75phr,SUMI,small_airport,Minas Municipal Airfield,-34.345455,-55.227522
6cc6u0ztf48x39ftb14fg,UY-0021,small_airport,La Rinconada Airport,-34.66773,-54.30602
6cc7uerbyfjnkc7bz7ex6,UY-0002,small_airport,Rocha Airport,-34.479077,-54.283494
6ccrzz440yz5u0e1r5bq5,UY-0010,small_airport,Saman Lascano Airport,-33.755113,-54.148823
6ccxe0tukxd97zxbbuneh,UY-0027,small_airport,Estancia El Monasterio Airstrip,-33.834374,-54.000696
6d0fdnb9xccbyfk3sect0,SAOU,medium_airport,Brigadier Mayor D Cesar Raul Ojeda Airport,-33.273201,-66.3564
6d12x7fecc91rkrxj5q4s,AR-0018,small_airport,Villa Mercedes Airport,-33.640858,-65.420074
6d1805dm54y7h8wxkjpmx,SAOR,medium_airport,Villa Reynolds Airport,-33.72990036,-65.38739777
6d1p22bmzruds5rz4vetb,AR-0636,small_airport,Estancia Las Marias Airport,-32.470437,-66.082103
6d1tdqncqmsb3eqkpfgen,AR-0352,small_airport,Tilisarao Airport,-32.75,-65.28220367
6d1xu8s9kqjvu2ekmcn9v,SAOS,small_airport,Valle Del Conlara International Airport,-32.384701,-65.186501
6d3dm89ctpj5mer5c6wn1,SAOD,medium_airport,Villa Dolores Airport,-31.9452,-65.146301
6d3g3pnvm9npc6x2vbjq4,AR-0274,small_airport,Mina Clavero Airport,-31.73310089,-64.98560333
6d40c8q8ew9y6heuwvg7b,AR-0396,small_airport,Coronel Moldes Airport,-33.616669,-64.612503
6d45rgq3e0q7kv18xmrye,SA17,small_airport,Rio Cuarto Aeroclub Airport,-33.16059875,-64.33820343
6d45tzs4dyg00tvycxu25,AR-0157,small_airport,Estindher Airport,-33.0931015,-64.42919922
6d47c9n374wqzvx3u4yvy,SAOC,medium_airport,Area De Material Airport,-33.085098,-64.261299
6d4cwqtgw5cmjte90pf60,AR-0434,small_airport,La Carlota Airport,-33.45000076,-63.34999847
6d4dmc10x6kpduuezkgq3,AR-0032,small_airport,Alejandro Roca Airport,-33.34889984,-63.72999954
6d4fp3y7dumvh6ngbddc9,AR-0532,small_airport,Casajus,-33.3882,-63.3055
6d4tsqckf1s70qvwcjch9,AR-0168,small_airport,General Deheza Airport,-32.74530029,-63.79579926
6d4zryf1u3jrz98x6d4cc,AR-0568,small_airport,RAIG S.A. Airport,-32.4382,-63.2893
6d4zx8b9g5v3m7dbwfnkb,AR-0569,small_airport,Suarez Aviación Airport,-32.4272,-63.3024
6d5316hn12qwxuqgxstmv,AR-0076,small_airport,Canals Airport,-33.5622,-62.8692
6d55dj2689q7vhfrhq9zx,AR-0604,small_airport,El Recuerdo S.R.L. Airport,-33.10549,-63.192986
6d572uh2nz1u256t0emyf,AR-0234,small_airport,Laborde Airport,-33.1567,-62.8906
6d57nf4rypqgusf5fw7e0,AR-0276,small_airport,Monte Maiz Airport,-33.2103,-62.6297
6d58kxeufzd3vpqq0thg3,AR-0512,small_airport,Arias Airport,-33.664,-62.3751
6d59tdwyfk107bnvymnuf,AR-0672,small_airport,Aerofumigaciones Bartoli Hermanos Airstrip,-33.471415,-62.327058
6d5b7dpqycvce9p7yztvg,AR-0232,small_airport,La Siesta Airport,-33.6939,-62.0625
6d5bqhktr1rub754cqczx,SA32,small_airport,Venado Tuerto Airport,-33.6818,-61.9564
6d5dgett9mz5n83n8g0n2,AR-0207,small_airport,Don Hector Biondi Airport,-33.2464,-62.4167
6d5dgzykg6ts7ubysevpr,AR-0531,small_airport,Biondi Airport],-33.2232,-62.4046
6d5f9tqex3m1rn7qq73j1,AR-0116,small_airport,Corral De Bustos Airport,-33.2811,-62.1514
6d5fk7uerqdbqf7fm3sue,AR-0099,small_airport,Chañar Ladeado Airport,-33.3333,-62.0333
6d5p8x8qpf4k3buy2ezf5,SACV,small_airport,Villa Maria Airport,-32.38940048,-63.25859833
6d5qjnmy3925g37cb8su9,SA05,small_airport,Bell Ville Airport,-32.6599,-62.702
6d5rjvkjf8cn7fccg9cpn,AR-0440,small_airport,La Zulema Airport,-32.4897,-62.6714
6d5sem9jxtjwhc67u83mc,AR-0446,small_airport,Pedro Ferrari Airport,-32.9278,-62.4336
6d5tc06j3r1h6ygg0dbyd,AR-0551,small_airport,Chialva S. H. Airport,-32.736945,-62.531378
6d5wmfxszgt2ejpdjb5c6,AR-0251,small_airport,Leones Airport,-32.6368,-62.3148
6d5y1d4h4r27c31dc8unk,SAOM,small_airport,Marcos Juarez Airport,-32.6836,-62.157801
6d60g2xzdgpvx8fvzct8g,AR-0670,small_airport,Hallpa Huayra Airport,-32.207863,-64.533906
6d60uschcbbukqv71wbg0,AR-0382,small_airport,Villa Rumipal Airport,-32.18500137,-64.48829651
6d62vxh2fmc9vmd6wz76h,SAOE,small_airport,Rio Tercero Airport,-32.173302,-64.088303
6d637y9190hf2035m05my,AR-0521,small_airport,Lomas del Espinillo Airport,-32.08806,-64.16972
6d63c61hh7xw6fgx8wm81,AR-0520,small_airport,Alfomso Mengo Airport,-32.02444,-64.27944
6d63er25wtwfjtcq31336,AR-0593,small_airport,Don Moises Airport,-32.039622,-64.192827
6d644ucsskq0x06gxjt66,AR-0379,small_airport,Villa General Belgrano Airport,-31.96529961,-64.56439972
6d65ywjc1rmwbq7dd3c67,AR-0036,small_airport,Alta Gracia Airport,-31.65139961,-64.39389801
6d65zq0pb0t9deddy0m5z,AR-0405,small_airport,El Toto Airport,-31.650278,-64.368889
6d68nc1y7z32qe8026gjt,AR-0598,small_airport,Hernando Airport,-32.337145,-63.685178
6d6bm30p5p2tux5pnw3en,AR-0557,small_airport,Tío Pujio Airport,-32.29307,-63.40197
6d6c9gw83cgwx991hr05n,AR-0285,small_airport,Oliva Airport,-32.06079865,-63.5469017
6d6ef8rycx71nr5vhynyy,SACI,small_airport,Pilar Airport,-31.68199921,-63.86380005
6d6j59tr9gnw6k7cur5dk,AR-0084,small_airport,Las Ensenadas Airport,-31.45529938,-64.52639771
6d6ku7vshbz2jvrjwpfx4,SACD,small_airport,Coronel Olmedo Airport,-31.487499,-64.141403
6d6m15y20ezzw6h4wj11z,SACE,small_airport,Escuela de Aviación Militar (Military Aviation School) Airport,-31.444223,-64.283377
6d6m1u0tem5bc38gjc9xe,SACA,small_airport,Captain D Omar Darío Gelardi Airport,-31.4419,-64.258202
6d6m2g9vn6kz9e9v154p4,AR-0227,small_airport,La Mezquita Airport,-31.40080071,-64.3003006
6d6mfctnv1t1gdm418xzh,SACO,medium_airport,Ingeniero Ambrosio Taravella Airport,-31.323601,-64.208
6d6nj29168m858j8bgvqf,AR-0117,small_airport,Santa María Airport,-31.2861,-64.455299
6d6pee961gcq8k4vhpesn,SACC,small_airport,La Cumbre Airport,-31.0058,-64.531898
6d6q7yph7pq3kb5h1zycn,AR-0216,small_airport,Juarez Celman Airport,-31.21138954,-64.16139221
6d6qqb4fmcevrh7d82201,AR-0392,small_airport,Colonia Tirolesa Airport,-31.244722,-64.035278
6d6rc66qu171wknnfsgxd,SACN,small_airport,Ascochinga Airport,-30.96792,-64.27774
6d6rtyu9hp6yfynz1nyjx,AR-0211,small_airport,Jesús Maria Airport,-30.98810005,-64.07689667
6d6u65hjjtqkr42yp0kkt,AR-0378,small_airport,Villa Del Rosario Airport,-31.579313,-63.539184
6d701hrcb8xtezygh5n2p,SAOV,medium_airport,Presidente Néstor Kirchner Regional Airport,-32.3201,-63.22663
6d75bh4yxvpgxctev8csp,CSA,small_airport,Aerocampo CSA airport,-31.66145444,-63.27713013
6d769zq20ucmwqpnyfzuh,AR-0426,small_airport,Ginevro Airport,-31.864445,-62.844166
6d76t47g4s4ufg7kwfx6r,AR-0248,small_airport,Las Varillas Airport,-31.8914,-62.7047
6d7cpwf98yj3kbcg1p0y4,AR-0616,small_airport,La Caldonia Airport,-32.1306,-61.8935
6d7fwq096srep62dt7r07,AR-0385,small_airport,Bocca Airport,-31.8711,-61.9511
6d7jnrc8rtx2qgppt58mv,AR-0049,small_airport,Arroyito/Arcor Airport,-31.42219925,-63.00419998
6d7pwksgct5hyrkc1xg4q,SACL,small_airport,Laguna Larga Airport,-31,-63
6d7v615xn0tvexscg09xb,AR-0328,small_airport,San Francisco Airport,-31.4142,-62.1336
6d9b3539shspt6gujbxyd,SACS,small_airport,Villa De Soto Airport,-30.875419,-64.99288
6db19ruqrwhqpm702jxtc,SANO,small_airport,Chilecito Airport,-29.2239,-67.438904
6db8b50zc0fqfredbtymk,SANL,medium_airport,Capitan V A Almonacid Airport,-29.381599,-66.795799
6dbkjq40r43bntb3q6scc,AR-0622,small_airport,Anillaco Airport,-28.795111,-66.914675
6dcjrfc3jbxv367vnx1tc,SANC,medium_airport,Coronel Felipe Varela International Airport,-28.593117,-65.7512
6dctn7kbt9n41t09270v5,SA45,small_airport,Frias Airport,-28.63439941,-65.10919952
6dd3qejhp9kgw9kw0gtfw,SACM,small_airport,Villa General Mitre Airport,-30.7006,-64.043098
6dd5pj8hk68t2fzzeszkg,AR-0124,small_airport,Dean Funes Airport,-30.37919998,-64.37969971
6dd9j2ezrxpb2jz0nm2vn,AR-0657,small_airport,Blondi Airport,-30.75769,-63.74818
6ddefbhku2yhrndybj2m0,AR-0457,small_airport,San José De La Dormida Airport,-30.27750015,-63.85749817
6ddtyug7ys12xd5qe1k72,AR-0342,small_airport,Villa de María de Río Seco Airport,-29.9,-63.683
6debh12phjznku1rhxbpb,AR-0068,small_airport,Pablo Sierra Aeroaplicaciones Airport,-30.9294,-62.0506
6debuv462mcnyvnjewyf7,AR-0537,small_airport,Campo San Jose Airport,-30.77778,-62.01472
6dechyp2ctc1h96242rjt,AR-0022,small_airport,Aeroboero Airport,-30.7286,-62.0078
6deckx38c5s6c4bnyycfe,AR-0280,small_airport,Morteros Airport,-30.6778,-62.0267
6degx2ks7pbr4hz7k6n0d,AR-0549,small_airport,Vergnano Airport,-30.32012,-61.90165
6deynccmqc0m0r3bmy0z5,SANW,small_airport,Ceres Airport,-29.872292,-61.927925
6deys6vc449gxdv19h46y,AR-0555,small_airport,Fumigaciones Nando Airport,-29.77963,-62.03181
6dg77hu01j2r7t8v58nx2,AR-0006,small_airport,Los Rulos Airport,-28.933839,-62.792315
6dgez8m1e17syjr2xvgpe,AR-0587,small_airport,Dutto Airport,-28.870432,-62.241535
6dgezhju4d519vg1vrb6s,AR-0201,small_airport,Agroservicio Doña Teresa Airport,-28.8494,-62.2625
6dgmczmjdz05t9rzsz6vb,AR-0042,small_airport,Añatuya Airport,-28.47970009,-62.84579849
6dh38gstf6c97nyuzmqnh,AR-0420,small_airport,Firmat Airport,-33.4661,-61.4842
6dh3b63nw3rhn7rzgrycw,AR-0160,small_airport,Firmat Aeroclub Airport,-33.4289,-61.5108
6dh3v09ryc56yvdg3vgdx,AR-0066,small_airport,Gran Ancona Airport,-33.4383,-61.3017
6dh7r23m6cqur1jy33gct,AR-0465,small_airport,Casilda Fumigaciones Airport,-33.176429,-61.20299
6dh7udt9pdymvugbp4c70,AR-0407,small_airport,Establecimiento La Florencia Airport,-33.0769,-61.3178
6dh7zjk1xs7vqjf0em52t,AR-0088,small_airport,Casilda Airport,-33.0617,-61.21
6dhcs7exhtevqp4b3wppp,AR-0554,small_airport,Cóndor del Aire Airport,-33.46587,-60.62854
6dhf7t8d0quceb5qvgtey,AR-0421,small_airport,Fumigaciones Campagnucci Airport,-33.3239,-60.6658
6dhfe8z3edrdwgcpkggtp,AR-0012,small_airport,Aerofumigaciones Don Alejandro Airport,-33.306157,-60.656387
6dhftwvyb3sx6pzu5m16t,AR-0519,small_airport,Agroservicios Airport,-33.2723,-60.5707
6dhg8yygwry6k8r81hwsx,AR-0739,small_airport,Piñero Airfield,-33.097044,-60.777807
6dhgf6u8vcn8n0hjkgs84,AR-0542,small_airport,Estancia La Carolina Airport,-33.07558,-60.715
6dhggkpejb6zfqhdr7ery,AR-0511,small_airport,Agroalvear S.R.L. Airport,-33.06833,-60.66694
6dhgvcdjhhnkzc4618mr2,AR-0305,small_airport,Pueblo Esther Airport,-33.0817,-60.5647
6dhh0z5exu17mqt1hy71p,AR-0118,small_airport,Cruz Alta Airport,-33.0078,-61.8369
6dhh60wx3zjyh09yy3r71,AR-0414,small_airport,Estancia San Vicente Airport,-32.9989,-61.7781
6dhm7e6gd97ybbmqesdxu,AR-0077,small_airport,Cañada de Gomez Airport,-32.808687,-61.36574
6dhn8ubckfv25g1nv45w2,AR-0444,small_airport,Montes De Oca Airport,-32.5811,-61.8408
6dhnrebxzwcprk0d9qkes,AR-0135,small_airport,El Gaucho Airport,-32.6294,-61.5444
6dhnzrs5hb7748wztqyb5,AR-0602,small_airport,Horizonte Aplicaciones Areas Airport,-32.521761,-61.550695
6dhpnsyrhnbt385yuz6mp,AR-0247,small_airport,Las Rosas Airport,-32.4922,-61.5806
6dhs4w2gspzd08p99jx70,AR-0437,small_airport,La Lucía Airport,-33.0119,-61.0608
6dhs5rx5byjd55qg6ucpb,AR-0449,small_airport,Pettilep Airport,-33.005,-61.0194
6dhsch6vjykz8h6z70j2u,AR-0397,small_airport,Di Giuseppe Airport,-32.8908,-61.1239
6dhszkzn9mex6dg3h9s00,AR-0030,small_airport,Alagro Fumigaciones Airport,-32.8878,-60.8436
6dhubf1dwu6utj61xzj13,SAAR,medium_airport,Rosario Islas Malvinas International Airport,-32.9036,-60.785
6dhuj049jbs7vvk9sh2m7,AR-0038,small_airport,Alvear Airpark,-33.0467,-60.5969
6dhv0zujgwrwf5hkke786,AR-0315,small_airport,Don Jose Airport,-32.8275,-60.7817
6dhv2kpx6vy664sgdcs68,AR-0450,small_airport,Pettilep II Airport,-32.8039,-60.7989
6dhwtvjrcug3jju19sf89,AR-0164,small_airport,Fumigaciones Stadler Airport,-32.5786,-60.9119
6dhxum5zwpb4dp7e66s8y,AR-0423,small_airport,Fumigaciones González Airport,-32.3589,-60.9797
6dhy39b27d0epbxhnsm17,AR-0306,small_airport,Terminal 6 Airport,-32.6417,-60.7539
6dj2qrq2c046zpc6s8pfk,AR-0400,small_airport,El Girasol Airport,-33.6661,-59.8339
6dj4n1qv4d2gfz8bvrvxt,SA31,small_airport,San Nicolas de los Arroyos Airport,-33.3907,-60.1957
6dj4u0q7h66rq82u3qnvr,AR-0021,small_airport,Acindar Airport,-33.2647,-60.2842
6dj82bm5828t7gen1xtc5,AR-0756,small_airport,San Pedro Airport,-33.704077,-59.725788
6djexymwnbss0m6wtgwrz,AR-0427,small_airport,Gualeguay Aeroclub Airport,-33.0994,-59.4172
6djg8vstkxwu8h7kp0m9j,AR-0183,small_airport,Gualeguay Airport,-33.10361099,-59.37472153
6djnwkny4ge4c48jdkw46,AR-0376,small_airport,Victoria Airport,-32.5844,-60.1847
6djrwf77yyfy3g7wz10cy,AR-0214,small_airport,Juan Carlos Bagur Airport,-32.4186,-59.8158
6djsp3w25nx4q9x0ukrmr,AR-0184,small_airport,Agro Aereo Gualeguay Airport,-33.0386,-59.4383
6djx8mq1ybnysehtqrxvs,AR-0282,small_airport,Nogoya Airport,-32.4025,-59.7461
6dk0ddubzk9cdqyydwnrs,AR-0388,small_airport,Burdisso Airport,-32.2406,-61.7583
6dk0ex7sq8u6jejfmsh3g,AR-0139,small_airport,El Trebol Airport,-32.2153,-61.7161
6dk0kv4fw9g1vy0zrv3qt,AR-0258,small_airport,Los Cardos Airport,-32.2719,-61.6622
6dk0t0fqws7mmke76egp4,AR-0524,small_airport,Bernardo's Airport,-32.2506,-61.6519
6dk1m98q7dj2mp56ke53q,AR-0056,small_airport,B&B Servicios Agropecuarios Airport,-32.1147,-61.6328
6dk1qs7zrn5us8cf8nefz,AR-0078,small_airport,Cañada Rosquin Airport,-32.0994,-61.5839
6dk1ypw1ppvvn1wdhr96s,AR-0516,small_airport,Stiefel Airport,-31.99472,-61.60278
6dk3zbtnut1k1u7r8rybj,AR-0165,small_airport,Galvez Airport,-32.0322,-61.1758
6dk48ey2tdnjstkh3nrmx,AR-0331,small_airport,San Jorge Airport,-31.8836,-61.8442
6dk4khtjkyxj17v69j3q2,AR-0641,small_airport,Traill Southeast Airport,-31.922586,-61.692139
6dkcv7thtqmu7k0ykykg9,AR-0125,small_airport,Diamante Airport,-32.0161,-60.5825
6dkg85n3bwtvn780uz226,SAAV,medium_airport,Sauce Viejo Airport,-31.7117,-60.8117
6dkgpeztbe9nk1tsb65xv,SAAP,medium_airport,General Urquiza Airport,-31.7948,-60.4804
6dkj95bvh910w0vu67eyf,AR-0552,small_airport,Santa Clara de Saguier Airport,-31.35549,-61.82983
6dkpzuk7qxwr25r3k5rnf,SAFS,small_airport,Sunchales Aeroclub Airport,-30.9575,-61.5283
6dkq03py4x2dufy92jwr8,SAFR,small_airport,Rafaela Airport,-31.2825,-61.5017
6dkszqqhzxxqgtfsterjw,AR-0141,small_airport,Esperanza Airport,-31.4736,-60.8447
6dkt2thvqtb5q0zucuz3p,AR-0406,small_airport,Establecimiento La Adelita Airport,-31.3925,-61.1431
6dktq5n93bc4ncvv0e0bq,AR-0044,small_airport,Anibal Brizi Airport,-31.4042,-60.8992
6dku76qcv5smmc40bhun2,AR-0182,small_airport,Guadalupe Airport,-31.584,-60.668
6dkxys8qd1bvr3km3twp6,AR-0231,small_airport,La Pelada Airport,-30.9556,-60.8858
6dkydmd6m4udbsp4wxz9p,AR-0631,small_airport,Estancia Los Leones Airport,-31.170558,-60.718125
6dm503kmmr1qhg516gqvz,AR-0325,small_airport,San Benito Airport,-31.8086,-60.4517
6dm564tt2huxvsyb63z4g,AR-0289,small_airport,Parana Aeroclub Airport,-31.7578,-60.3733
6dm5mxmphq36n1n1wqvez,AR-0290,small_airport,Parana Club De Planeadores Airport,-31.7314,-60.22
6dmbj4dwx01xwyqj7974s,AR-0321,small_airport,Rosario Del Tala Airport,-32.3289,-59.1906
6dme17j1mu2f70zr26s45,AR-0617,small_airport,El Ocho Airstrip,-31.799689,-59.703579
6dmfz8yrntxgmf43k3g7z,SAAU,small_airport,Villaguay Airport,-31.855,-59.0756
6dmg8m3c9ew37ybrs9kdd,AR-0403,small_airport,El Malagueño Airport,-31.6994,-59.4006
6dmrz8zz36jnzntbnv410,AR-0585,small_airport,Santa Elena Airport,-30.976069,-59.776894
6dmsgg4wup6mu0507v6s6,AR-0761,small_airport,El Chou Airstrip,-31.491111,-59.597222
6dn200pbnb584bj2180bj,AR-0433,small_airport,Islas Del Ibicuy Airport,-33.75,-58.7
6dndye0p0ey9zjb7ubxuq,SUME,small_airport,Ricardo Detomasi Airport,-33.2489,-58.0737
6dne3qxy0fygfspydu54k,UY-0001,small_airport,Villa Independencia Airport,-33.14196,-58.293759
6dnjgxyctjm2ccbv1pzwy,AR-0372,small_airport,Urdinarrain Airport,-32.6964,-58.8992
6dnk4px2wh25bd1tg8yv7,SAAG,medium_airport,Gualeguaychu Airport,-33.005567,-58.612833
6dnke7620tfukqkrkbe3j,AR-0411,small_airport,Estancia La Providencia Airport,-32.9411,-58.565
6dnpuhu6cvtr4yupch177,AR-0060,small_airport,Basavilbaso Airport,-32.3611,-58.8808
6dnqsrubskem2bx17s7fy,AR-0629,small_airport,Estancia El Pinocho,-32.564739,-58.51746
6dns6mhu3fxm64ukz3qbv,AR-0529,small_airport,Estancia El Potrero Airport,-32.97472,-58.25389
6dnu2w49cr92r5cwrb3qd,SUNM,small_airport,Estancia Nueva Mehlem Airport,-32.96963,-57.982351
6dnx3hr1brkkj7c7sueh5,AR-0110,small_airport,Concepcion Del Uruguay Airport,-32.4519,-58.3058
6dnxyu2w5esewneu3v9tu,SUPU,medium_airport,Tydeo Larre Borges Airport,-32.3633,-58.061901
6dnxz92p0sfh2qs3xzw6m,SUPC,small_airport,Charles Chalkling Airport,-32.379601,-58.029761
6dnypcqxkbk8cq2fpr1tq,SUYN,small_airport,Young Airport,-32.6872,-57.6581
6dp992jk7xbmchbqzbn5m,UY-0014,small_airport,Juan B. Desalvo Airport,-33.485556,-56.890833
6dpf4r4w34xy21zbnchkd,SUDU,medium_airport,Santa Bernardina International Airport,-33.358898,-56.499199
6dprfx7bqmh8fcuu6kh20,SUGN,small_airport,Guichón Airfield,-32.3478,-57.1894
6dprgp93qmu2bwt2z2tym,UY-0009,small_airport,Aeroclub Guichón Airfield,-32.346251,-57.170861
6dpz8q3tyhckceendtpdp,UY-0004,small_airport,Garcia Brum Airstrip,-32.396295,-56.588257
